{
"type": "FeatureCollection",
"crs": { "type": "name", "properties": { "name": "urn:ogc:def:crs:OGC:1.3:CRS84" } },
                                                                                
"features": [
{ "type": "Feature", "properties": { "OGC_FID": 1, "OSM_ID": "336927387", "NAME": "Rigpa Shedra", "BARRIER": null, "HIGHWAY": null, "REF": null, "ADDRESS": null, "IS_IN": null, "PLACE": null, "MAN_MADE": null, "OTHER_TAGS": "\"amenity\"=>\"college\"" }, "geometry": { "type": "Point", "coordinates": [ 85.267175, 27.615286 ] } },
{ "type": "Feature", "properties": { "OGC_FID": 2, "OSM_ID": "575231600", "NAME": "Oxford Boarding School", "BARRIER": null, "HIGHWAY": null, "REF": null, "ADDRESS": null, "IS_IN": null, "PLACE": null, "MAN_MADE": null, "OTHER_TAGS": "\"amenity\"=>\"school\"" }, "geometry": { "type": "Point", "coordinates": [ 85.3017867, 27.7201758 ] } },
{ "type": "Feature", "properties": { "OGC_FID": 3, "OSM_ID": "762033465", "NAME": "Nepal Art Campus", "BARRIER": null, "HIGHWAY": null, "REF": null, "ADDRESS": null, "IS_IN": null, "PLACE": null, "MAN_MADE": null, "OTHER_TAGS": "\"amenity\"=>\"college\"" }, "geometry": { "type": "Point", "coordinates": [ 85.31379960000001, 27.7075428 ] } },
{ "type": "Feature", "properties": { "OGC_FID": 4, "OSM_ID": "858011362", "NAME": "Lok Priya HSS", "BARRIER": null, "HIGHWAY": null, "REF": null, "ADDRESS": null, "IS_IN": null, "PLACE": null, "MAN_MADE": null, "OTHER_TAGS": "\"Boys\"=>\"50\", \"Girls\"=>\"70\", \"GON_PVT\"=>\"GON\", \"amenity\"=>\"school\", \"Students\"=>\"120\", \"Teachers\"=>\"17\", \"addr:city\"=>\"Chame\"" }, "geometry": { "type": "Point", "coordinates": [ 84.241121400000011, 28.5522132 ] } },
{ "type": "Feature", "properties": { "OGC_FID": 5, "OSM_ID": "974384860", "NAME": null, "BARRIER": null, "HIGHWAY": null, "REF": null, "ADDRESS": null, "IS_IN": null, "PLACE": null, "MAN_MADE": null, "OTHER_TAGS": "\"amenity\"=>\"school\"" }, "geometry": { "type": "Point", "coordinates": [ 83.7823901, 28.8367747 ] } },
{ "type": "Feature", "properties": { "OGC_FID": 6, "OSM_ID": "977262823", "NAME": null, "BARRIER": null, "HIGHWAY": null, "REF": null, "ADDRESS": null, "IS_IN": null, "PLACE": null, "MAN_MADE": null, "OTHER_TAGS": "\"amenity\"=>\"school\"" }, "geometry": { "type": "Point", "coordinates": [ 83.8219131, 28.9128671 ] } },
{ "type": "Feature", "properties": { "OGC_FID": 7, "OSM_ID": "995930457", "NAME": "School", "BARRIER": null, "HIGHWAY": null, "REF": null, "ADDRESS": null, "IS_IN": null, "PLACE": null, "MAN_MADE": null, "OTHER_TAGS": "\"amenity\"=>\"school\"" }, "geometry": { "type": "Point", "coordinates": [ 83.6883295, 28.425426 ] } },
{ "type": "Feature", "properties": { "OGC_FID": 8, "OSM_ID": "1046604939", "NAME": null, "BARRIER": null, "HIGHWAY": null, "REF": null, "ADDRESS": null, "IS_IN": null, "PLACE": null, "MAN_MADE": null, "OTHER_TAGS": "\"amenity\"=>\"school\"" }, "geometry": { "type": "Point", "coordinates": [ 84.8336496, 28.5206148 ] } },
{ "type": "Feature", "properties": { "OGC_FID": 9, "OSM_ID": "1281196385", "NAME": "nepal pathfinder coed", "BARRIER": null, "HIGHWAY": null, "REF": null, "ADDRESS": null, "IS_IN": null, "PLACE": null, "MAN_MADE": null, "OTHER_TAGS": "\"amenity\"=>\"school\"" }, "geometry": { "type": "Point", "coordinates": [ 85.3458843, 27.7031881 ] } },
{ "type": "Feature", "properties": { "OGC_FID": 10, "OSM_ID": "1322306939", "NAME": null, "BARRIER": null, "HIGHWAY": null, "REF": null, "ADDRESS": null, "IS_IN": null, "PLACE": null, "MAN_MADE": null, "OTHER_TAGS": "\"amenity\"=>\"school\"" }, "geometry": { "type": "Point", "coordinates": [ 84.4045329, 27.9368493 ] } },
{ "type": "Feature", "properties": { "OGC_FID": 11, "OSM_ID": "1322411417", "NAME": null, "BARRIER": null, "HIGHWAY": null, "REF": null, "ADDRESS": null, "IS_IN": null, "PLACE": null, "MAN_MADE": null, "OTHER_TAGS": "\"amenity\"=>\"school\"" }, "geometry": { "type": "Point", "coordinates": [ 84.4078566, 27.938707 ] } },
{ "type": "Feature", "properties": { "OGC_FID": 12, "OSM_ID": "1329345982", "NAME": null, "BARRIER": null, "HIGHWAY": null, "REF": null, "ADDRESS": null, "IS_IN": null, "PLACE": null, "MAN_MADE": null, "OTHER_TAGS": "\"amenity\"=>\"school\"" }, "geometry": { "type": "Point", "coordinates": [ 84.3442348, 27.9248687 ] } },
{ "type": "Feature", "properties": { "OGC_FID": 13, "OSM_ID": "1343868939", "NAME": "Fewa Seconday Boarding School", "BARRIER": null, "HIGHWAY": null, "REF": null, "ADDRESS": null, "IS_IN": null, "PLACE": null, "MAN_MADE": null, "OTHER_TAGS": "\"amenity\"=>\"school\"" }, "geometry": { "type": "Point", "coordinates": [ 83.9580401, 28.2142953 ] } },
{ "type": "Feature", "properties": { "OGC_FID": 14, "OSM_ID": "1343868942", "NAME": "Buds Education Foundation", "BARRIER": null, "HIGHWAY": null, "REF": null, "ADDRESS": null, "IS_IN": null, "PLACE": null, "MAN_MADE": null, "OTHER_TAGS": "\"amenity\"=>\"school\"" }, "geometry": { "type": "Point", "coordinates": [ 83.9610386, 28.2137418 ] } },
{ "type": "Feature", "properties": { "OGC_FID": 15, "OSM_ID": "1350340384", "NAME": "Institute of Agriculture and Animal Breeding", "BARRIER": null, "HIGHWAY": null, "REF": null, "ADDRESS": null, "IS_IN": null, "PLACE": null, "MAN_MADE": null, "OTHER_TAGS": "\"amenity\"=>\"university\"" }, "geometry": { "type": "Point", "coordinates": [ 84.3525046, 27.6548303 ] } },
{ "type": "Feature", "properties": { "OGC_FID": 16, "OSM_ID": "1350340841", "NAME": "Rampur University", "BARRIER": null, "HIGHWAY": null, "REF": null, "ADDRESS": null, "IS_IN": null, "PLACE": null, "MAN_MADE": null, "OTHER_TAGS": "\"amenity\"=>\"university\", \"website\"=>\"http:\/\/www.iaas.edu.np\/rampur.htm\"" }, "geometry": { "type": "Point", "coordinates": [ 84.3515137, 27.6516483 ] } },
{ "type": "Feature", "properties": { "OGC_FID": 17, "OSM_ID": "1352208766", "NAME": "Kalika College", "BARRIER": null, "HIGHWAY": null, "REF": null, "ADDRESS": null, "IS_IN": null, "PLACE": null, "MAN_MADE": null, "OTHER_TAGS": "\"amenity\"=>\"college\"" }, "geometry": { "type": "Point", "coordinates": [ 84.0033473, 28.1924394 ] } },
{ "type": "Feature", "properties": { "OGC_FID": 18, "OSM_ID": "1352877482", "NAME": "Mount Everest Boarding School", "BARRIER": null, "HIGHWAY": null, "REF": null, "ADDRESS": null, "IS_IN": null, "PLACE": null, "MAN_MADE": null, "OTHER_TAGS": "\"amenity\"=>\"school\"" }, "geometry": { "type": "Point", "coordinates": [ 83.98457160000001, 28.2139329 ] } },
{ "type": "Feature", "properties": { "OGC_FID": 19, "OSM_ID": "1352877491", "NAME": "Pokhara Engineering College", "BARRIER": null, "HIGHWAY": null, "REF": null, "ADDRESS": null, "IS_IN": null, "PLACE": null, "MAN_MADE": null, "OTHER_TAGS": "\"amenity\"=>\"college\", \"contact:fax\"=>\"+97761528530\", \"contact:email\"=>\"info@pec.edu.np\", \"contact:phone\"=>\"+97761531209\", \"contact:website\"=>\"http:\/\/www.pec.edu.np\"" }, "geometry": { "type": "Point", "coordinates": [ 83.9775335, 28.2110839 ] } },
{ "type": "Feature", "properties": { "OGC_FID": 20, "OSM_ID": "1352877493", "NAME": "Cosmos College", "BARRIER": null, "HIGHWAY": null, "REF": null, "ADDRESS": null, "IS_IN": null, "PLACE": null, "MAN_MADE": null, "OTHER_TAGS": "\"amenity\"=>\"college\"" }, "geometry": { "type": "Point", "coordinates": [ 83.9798244, 28.2101488 ] } },
{ "type": "Feature", "properties": { "OGC_FID": 21, "OSM_ID": "1352912636", "NAME": "Kanya Campus Pokhara", "BARRIER": null, "HIGHWAY": null, "REF": null, "ADDRESS": null, "IS_IN": null, "PLACE": null, "MAN_MADE": null, "OTHER_TAGS": "\"amenity\"=>\"school\"" }, "geometry": { "type": "Point", "coordinates": [ 83.991163300000011, 28.2318977 ] } },
{ "type": "Feature", "properties": { "OGC_FID": 22, "OSM_ID": "1353127780", "NAME": "Pokhara Higher Secondary School", "BARRIER": null, "HIGHWAY": null, "REF": null, "ADDRESS": null, "IS_IN": null, "PLACE": null, "MAN_MADE": null, "OTHER_TAGS": "\"amenity\"=>\"school\"" }, "geometry": { "type": "Point", "coordinates": [ 83.9890884, 28.2372182 ] } },
{ "type": "Feature", "properties": { "OGC_FID": 23, "OSM_ID": "1459847000", "NAME": "Aishwarya Vidya Niketan", "BARRIER": null, "HIGHWAY": null, "REF": null, "ADDRESS": null, "IS_IN": null, "PLACE": null, "MAN_MADE": null, "OTHER_TAGS": "\"amenity\"=>\"school\"" }, "geometry": { "type": "Point", "coordinates": [ 80.5884266, 28.7099853 ] } },
{ "type": "Feature", "properties": { "OGC_FID": 24, "OSM_ID": "1459877630", "NAME": "Trinagar School", "BARRIER": null, "HIGHWAY": null, "REF": null, "ADDRESS": null, "IS_IN": null, "PLACE": null, "MAN_MADE": null, "OTHER_TAGS": "\"amenity\"=>\"school\"" }, "geometry": { "type": "Point", "coordinates": [ 80.582139500000011, 28.7056379 ] } },
{ "type": "Feature", "properties": { "OGC_FID": 25, "OSM_ID": "1461408038", "NAME": null, "BARRIER": null, "HIGHWAY": null, "REF": null, "ADDRESS": null, "IS_IN": null, "PLACE": null, "MAN_MADE": null, "OTHER_TAGS": "\"amenity\"=>\"school\"" }, "geometry": { "type": "Point", "coordinates": [ 84.70576650000001, 28.1665728 ] } },
{ "type": "Feature", "properties": { "OGC_FID": 26, "OSM_ID": "1485424689", "NAME": null, "BARRIER": null, "HIGHWAY": null, "REF": null, "ADDRESS": null, "IS_IN": null, "PLACE": null, "MAN_MADE": null, "OTHER_TAGS": "\"amenity\"=>\"school\"" }, "geometry": { "type": "Point", "coordinates": [ 83.8788505, 28.3512431 ] } },
{ "type": "Feature", "properties": { "OGC_FID": 27, "OSM_ID": "1489545888", "NAME": "Shree Mahankali Secondary School", "BARRIER": null, "HIGHWAY": null, "REF": null, "ADDRESS": null, "IS_IN": null, "PLACE": null, "MAN_MADE": null, "OTHER_TAGS": "\"amenity\"=>\"school\"" }, "geometry": { "type": "Point", "coordinates": [ 85.5211187, 27.720209 ] } },
{ "type": "Feature", "properties": { "OGC_FID": 28, "OSM_ID": "1497181834", "NAME": "Euro Kids", "BARRIER": null, "HIGHWAY": null, "REF": null, "ADDRESS": null, "IS_IN": null, "PLACE": null, "MAN_MADE": null, "OTHER_TAGS": "\"amenity\"=>\"kindergarten\"" }, "geometry": { "type": "Point", "coordinates": [ 85.286597300000011, 27.7061988 ] } },
{ "type": "Feature", "properties": { "OGC_FID": 29, "OSM_ID": "1512400306", "NAME": "Secondary Boarding School", "BARRIER": null, "HIGHWAY": null, "REF": null, "ADDRESS": null, "IS_IN": null, "PLACE": null, "MAN_MADE": null, "OTHER_TAGS": "\"amenity\"=>\"school\"" }, "geometry": { "type": "Point", "coordinates": [ 83.7690103, 28.0384011 ] } },
{ "type": "Feature", "properties": { "OGC_FID": 30, "OSM_ID": "1512438679", "NAME": "Public Academy Primary School", "BARRIER": null, "HIGHWAY": null, "REF": null, "ADDRESS": null, "IS_IN": null, "PLACE": null, "MAN_MADE": null, "OTHER_TAGS": "\"amenity\"=>\"school\"" }, "geometry": { "type": "Point", "coordinates": [ 83.7438035, 28.052811 ] } },
{ "type": "Feature", "properties": { "OGC_FID": 31, "OSM_ID": "1512438680", "NAME": "Public Academy Secondary School", "BARRIER": null, "HIGHWAY": null, "REF": null, "ADDRESS": null, "IS_IN": null, "PLACE": null, "MAN_MADE": null, "OTHER_TAGS": "\"amenity\"=>\"school\"" }, "geometry": { "type": "Point", "coordinates": [ 83.7488662, 28.0491348 ] } },
{ "type": "Feature", "properties": { "OGC_FID": 32, "OSM_ID": "1512438685", "NAME": "Ratnadabisthan Primary School", "BARRIER": null, "HIGHWAY": null, "REF": null, "ADDRESS": null, "IS_IN": null, "PLACE": null, "MAN_MADE": null, "OTHER_TAGS": "\"amenity\"=>\"school\"" }, "geometry": { "type": "Point", "coordinates": [ 83.753848, 28.0564154 ] } },
{ "type": "Feature", "properties": { "OGC_FID": 33, "OSM_ID": "1512453009", "NAME": "Sirukharka Primary School", "BARRIER": null, "HIGHWAY": null, "REF": null, "ADDRESS": null, "IS_IN": null, "PLACE": null, "MAN_MADE": null, "OTHER_TAGS": "\"amenity\"=>\"school\"" }, "geometry": { "type": "Point", "coordinates": [ 83.7135916, 28.0808032 ] } },
{ "type": "Feature", "properties": { "OGC_FID": 34, "OSM_ID": "1512480933", "NAME": "Sirukharka Jogithum Secondary School", "BARRIER": null, "HIGHWAY": null, "REF": null, "ADDRESS": null, "IS_IN": null, "PLACE": null, "MAN_MADE": null, "OTHER_TAGS": "\"amenity\"=>\"school\"" }, "geometry": { "type": "Point", "coordinates": [ 83.7233482, 28.0684129 ] } },
{ "type": "Feature", "properties": { "OGC_FID": 35, "OSM_ID": "1512486164", "NAME": "Suryamukhi Primary School", "BARRIER": null, "HIGHWAY": null, "REF": null, "ADDRESS": null, "IS_IN": null, "PLACE": null, "MAN_MADE": null, "OTHER_TAGS": "\"amenity\"=>\"school\"" }, "geometry": { "type": "Point", "coordinates": [ 83.7255915, 28.0559784 ] } },
{ "type": "Feature", "properties": { "OGC_FID": 36, "OSM_ID": "1512598463", "NAME": "Amar Primary School", "BARRIER": null, "HIGHWAY": null, "REF": null, "ADDRESS": null, "IS_IN": null, "PLACE": null, "MAN_MADE": null, "OTHER_TAGS": "\"amenity\"=>\"school\"" }, "geometry": { "type": "Point", "coordinates": [ 83.74000190000001, 28.0409089 ] } },
{ "type": "Feature", "properties": { "OGC_FID": 37, "OSM_ID": "1512598464", "NAME": "Bhagyadaya Higher Secondary School", "BARRIER": null, "HIGHWAY": null, "REF": null, "ADDRESS": null, "IS_IN": null, "PLACE": null, "MAN_MADE": null, "OTHER_TAGS": "\"amenity\"=>\"school\"" }, "geometry": { "type": "Point", "coordinates": [ 83.7619951, 28.0369296 ] } },
{ "type": "Feature", "properties": { "OGC_FID": 38, "OSM_ID": "1512598465", "NAME": "Bhawani Primary School", "BARRIER": null, "HIGHWAY": null, "REF": null, "ADDRESS": null, "IS_IN": null, "PLACE": null, "MAN_MADE": null, "OTHER_TAGS": "\"amenity\"=>\"school\"" }, "geometry": { "type": "Point", "coordinates": [ 83.740518200000011, 28.0294655 ] } },
{ "type": "Feature", "properties": { "OGC_FID": 39, "OSM_ID": "1512598466", "NAME": "Mohani Primary School", "BARRIER": null, "HIGHWAY": null, "REF": null, "ADDRESS": null, "IS_IN": null, "PLACE": null, "MAN_MADE": null, "OTHER_TAGS": "\"amenity\"=>\"school\"" }, "geometry": { "type": "Point", "coordinates": [ 83.754080800000011, 28.0368651 ] } },
{ "type": "Feature", "properties": { "OGC_FID": 40, "OSM_ID": "1512598472", "NAME": "Secondary School", "BARRIER": null, "HIGHWAY": null, "REF": null, "ADDRESS": null, "IS_IN": null, "PLACE": null, "MAN_MADE": null, "OTHER_TAGS": "\"amenity\"=>\"school\"" }, "geometry": { "type": "Point", "coordinates": [ 83.7266763, 28.0366075 ] } },
{ "type": "Feature", "properties": { "OGC_FID": 41, "OSM_ID": "1512598475", "NAME": "Sitalchaur Primary School", "BARRIER": null, "HIGHWAY": null, "REF": null, "ADDRESS": null, "IS_IN": null, "PLACE": null, "MAN_MADE": null, "OTHER_TAGS": "\"amenity\"=>\"school\"" }, "geometry": { "type": "Point", "coordinates": [ 83.729008900000011, 28.0325081 ] } },
{ "type": "Feature", "properties": { "OGC_FID": 42, "OSM_ID": "1512618773", "NAME": "Primary School", "BARRIER": null, "HIGHWAY": null, "REF": null, "ADDRESS": null, "IS_IN": null, "PLACE": null, "MAN_MADE": null, "OTHER_TAGS": "\"amenity\"=>\"school\"" }, "geometry": { "type": "Point", "coordinates": [ 83.73635440000001, 28.0509114 ] } },
{ "type": "Feature", "properties": { "OGC_FID": 43, "OSM_ID": "1512618775", "NAME": "Saraswati Primary School", "BARRIER": null, "HIGHWAY": null, "REF": null, "ADDRESS": null, "IS_IN": null, "PLACE": null, "MAN_MADE": null, "OTHER_TAGS": "\"amenity\"=>\"school\"" }, "geometry": { "type": "Point", "coordinates": [ 83.7402026, 28.0448665 ] } },
{ "type": "Feature", "properties": { "OGC_FID": 44, "OSM_ID": "1513673133", "NAME": "Primary School", "BARRIER": null, "HIGHWAY": null, "REF": null, "ADDRESS": null, "IS_IN": null, "PLACE": null, "MAN_MADE": null, "OTHER_TAGS": "\"amenity\"=>\"school\"" }, "geometry": { "type": "Point", "coordinates": [ 83.8714427, 28.1010166 ] } },
{ "type": "Feature", "properties": { "OGC_FID": 45, "OSM_ID": "1568541966", "NAME": "Local school", "BARRIER": null, "HIGHWAY": null, "REF": null, "ADDRESS": null, "IS_IN": null, "PLACE": null, "MAN_MADE": null, "OTHER_TAGS": "\"amenity\"=>\"school\"" }, "geometry": { "type": "Point", "coordinates": [ 83.8157451, 28.3973691 ] } },
{ "type": "Feature", "properties": { "OGC_FID": 46, "OSM_ID": "1656152230", "NAME": "Bindheswory School", "BARRIER": null, "HIGHWAY": null, "REF": null, "ADDRESS": null, "IS_IN": null, "PLACE": null, "MAN_MADE": null, "OTHER_TAGS": "\"amenity\"=>\"school\"" }, "geometry": { "type": "Point", "coordinates": [ 83.985670500000012, 28.2359045 ] } },
{ "type": "Feature", "properties": { "OGC_FID": 47, "OSM_ID": "1657835380", "NAME": "Krishna Nagar School", "BARRIER": null, "HIGHWAY": null, "REF": null, "ADDRESS": null, "IS_IN": null, "PLACE": null, "MAN_MADE": null, "OTHER_TAGS": "\"amenity\"=>\"school\"" }, "geometry": { "type": "Point", "coordinates": [ 84.4237056, 27.4312803 ] } },
{ "type": "Feature", "properties": { "OGC_FID": 48, "OSM_ID": "1657866079", "NAME": "Madi Campus", "BARRIER": null, "HIGHWAY": null, "REF": null, "ADDRESS": null, "IS_IN": null, "PLACE": null, "MAN_MADE": null, "OTHER_TAGS": "\"amenity\"=>\"school\"" }, "geometry": { "type": "Point", "coordinates": [ 84.3214555, 27.453595 ] } },
{ "type": "Feature", "properties": { "OGC_FID": 49, "OSM_ID": "1683952396", "NAME": "primary\/boarding", "BARRIER": null, "HIGHWAY": null, "REF": null, "ADDRESS": null, "IS_IN": null, "PLACE": null, "MAN_MADE": null, "OTHER_TAGS": "\"amenity\"=>\"school\"" }, "geometry": { "type": "Point", "coordinates": [ 84.5409876, 28.0733974 ] } },
{ "type": "Feature", "properties": { "OGC_FID": 50, "OSM_ID": "1683952415", "NAME": "secondary", "BARRIER": null, "HIGHWAY": null, "REF": null, "ADDRESS": null, "IS_IN": null, "PLACE": null, "MAN_MADE": null, "OTHER_TAGS": "\"amenity\"=>\"school\"" }, "geometry": { "type": "Point", "coordinates": [ 84.5404517, 28.0691463 ] } },
{ "type": "Feature", "properties": { "OGC_FID": 51, "OSM_ID": "1683952418", "NAME": "primary", "BARRIER": null, "HIGHWAY": null, "REF": null, "ADDRESS": null, "IS_IN": null, "PLACE": null, "MAN_MADE": null, "OTHER_TAGS": "\"amenity\"=>\"school\"" }, "geometry": { "type": "Point", "coordinates": [ 84.538379400000011, 28.0698417 ] } },
{ "type": "Feature", "properties": { "OGC_FID": 52, "OSM_ID": "1738844692", "NAME": null, "BARRIER": null, "HIGHWAY": null, "REF": null, "ADDRESS": null, "IS_IN": null, "PLACE": null, "MAN_MADE": null, "OTHER_TAGS": "\"amenity\"=>\"school\"" }, "geometry": { "type": "Point", "coordinates": [ 83.973854100000011, 28.6699128 ] } },
{ "type": "Feature", "properties": { "OGC_FID": 53, "OSM_ID": "1747827365", "NAME": null, "BARRIER": null, "HIGHWAY": null, "REF": null, "ADDRESS": null, "IS_IN": null, "PLACE": null, "MAN_MADE": null, "OTHER_TAGS": "\"amenity\"=>\"school\"" }, "geometry": { "type": "Point", "coordinates": [ 83.7873369, 28.4000655 ] } },
{ "type": "Feature", "properties": { "OGC_FID": 54, "OSM_ID": "1747827366", "NAME": null, "BARRIER": null, "HIGHWAY": null, "REF": null, "ADDRESS": null, "IS_IN": null, "PLACE": null, "MAN_MADE": null, "OTHER_TAGS": "\"amenity\"=>\"school\"" }, "geometry": { "type": "Point", "coordinates": [ 83.8151617, 28.4010577 ] } },
{ "type": "Feature", "properties": { "OGC_FID": 55, "OSM_ID": "1747927948", "NAME": null, "BARRIER": null, "HIGHWAY": null, "REF": null, "ADDRESS": null, "IS_IN": null, "PLACE": null, "MAN_MADE": null, "OTHER_TAGS": "\"amenity\"=>\"school\"" }, "geometry": { "type": "Point", "coordinates": [ 83.8796871, 28.3829191 ] } },
{ "type": "Feature", "properties": { "OGC_FID": 56, "OSM_ID": "1747929519", "NAME": null, "BARRIER": null, "HIGHWAY": null, "REF": null, "ADDRESS": null, "IS_IN": null, "PLACE": null, "MAN_MADE": null, "OTHER_TAGS": "\"amenity\"=>\"school\"" }, "geometry": { "type": "Point", "coordinates": [ 83.883560100000011, 28.3636606 ] } },
{ "type": "Feature", "properties": { "OGC_FID": 57, "OSM_ID": "1767253040", "NAME": "Nepal Banepa Polytechnic", "BARRIER": null, "HIGHWAY": null, "REF": null, "ADDRESS": null, "IS_IN": null, "PLACE": null, "MAN_MADE": null, "OTHER_TAGS": "\"amenity\"=>\"school\"" }, "geometry": { "type": "Point", "coordinates": [ 85.5246034, 27.6367561 ] } },
{ "type": "Feature", "properties": { "OGC_FID": 58, "OSM_ID": "1767264414", "NAME": "Deaf School", "BARRIER": null, "HIGHWAY": null, "REF": null, "ADDRESS": null, "IS_IN": null, "PLACE": null, "MAN_MADE": null, "OTHER_TAGS": "\"amenity\"=>\"school\"" }, "geometry": { "type": "Point", "coordinates": [ 85.5200585, 27.6352924 ] } },
{ "type": "Feature", "properties": { "OGC_FID": 59, "OSM_ID": "1767274669", "NAME": "Pancha Kumari School", "BARRIER": null, "HIGHWAY": null, "REF": null, "ADDRESS": null, "IS_IN": null, "PLACE": null, "MAN_MADE": null, "OTHER_TAGS": "\"amenity\"=>\"school\"" }, "geometry": { "type": "Point", "coordinates": [ 85.5170168, 27.6390847 ] } },
{ "type": "Feature", "properties": { "OGC_FID": 60, "OSM_ID": "1767311715", "NAME": null, "BARRIER": null, "HIGHWAY": null, "REF": null, "ADDRESS": null, "IS_IN": null, "PLACE": null, "MAN_MADE": null, "OTHER_TAGS": "\"amenity\"=>\"school\"" }, "geometry": { "type": "Point", "coordinates": [ 85.517993100000012, 27.6321554 ] } },
{ "type": "Feature", "properties": { "OGC_FID": 61, "OSM_ID": "1767319463", "NAME": "Chitanya School", "BARRIER": null, "HIGHWAY": null, "REF": null, "ADDRESS": null, "IS_IN": null, "PLACE": null, "MAN_MADE": null, "OTHER_TAGS": "\"amenity\"=>\"school\"" }, "geometry": { "type": "Point", "coordinates": [ 85.520267600000011, 27.6324121 ] } },
{ "type": "Feature", "properties": { "OGC_FID": 62, "OSM_ID": "1768225328", "NAME": "Kavre School", "BARRIER": null, "HIGHWAY": null, "REF": null, "ADDRESS": null, "IS_IN": null, "PLACE": null, "MAN_MADE": null, "OTHER_TAGS": "\"amenity\"=>\"school\"" }, "geometry": { "type": "Point", "coordinates": [ 85.5271823, 27.6301874 ] } },
{ "type": "Feature", "properties": { "OGC_FID": 63, "OSM_ID": "1768227833", "NAME": "Pragati Prabhat", "BARRIER": null, "HIGHWAY": null, "REF": null, "ADDRESS": null, "IS_IN": null, "PLACE": null, "MAN_MADE": null, "OTHER_TAGS": "\"amenity\"=>\"school\"" }, "geometry": { "type": "Point", "coordinates": [ 85.525798200000011, 27.6305106 ] } },
{ "type": "Feature", "properties": { "OGC_FID": 64, "OSM_ID": "1768227841", "NAME": "Innovative Academy", "BARRIER": null, "HIGHWAY": null, "REF": null, "ADDRESS": null, "IS_IN": null, "PLACE": null, "MAN_MADE": null, "OTHER_TAGS": "\"amenity\"=>\"school\"" }, "geometry": { "type": "Point", "coordinates": [ 85.5254496, 27.6311997 ] } },
{ "type": "Feature", "properties": { "OGC_FID": 65, "OSM_ID": "1772139973", "NAME": "Kavre School", "BARRIER": null, "HIGHWAY": null, "REF": null, "ADDRESS": null, "IS_IN": null, "PLACE": null, "MAN_MADE": null, "OTHER_TAGS": "\"amenity\"=>\"school\"" }, "geometry": { "type": "Point", "coordinates": [ 85.5344696, 27.6297937 ] } },
{ "type": "Feature", "properties": { "OGC_FID": 66, "OSM_ID": "1787036668", "NAME": "aptech institute", "BARRIER": null, "HIGHWAY": null, "REF": null, "ADDRESS": null, "IS_IN": null, "PLACE": null, "MAN_MADE": null, "OTHER_TAGS": "\"amenity\"=>\"school\"" }, "geometry": { "type": "Point", "coordinates": [ 85.3192341, 27.6713666 ] } },
{ "type": "Feature", "properties": { "OGC_FID": 67, "OSM_ID": "1787037891", "NAME": "caspian college", "BARRIER": null, "HIGHWAY": null, "REF": null, "ADDRESS": null, "IS_IN": null, "PLACE": null, "MAN_MADE": null, "OTHER_TAGS": "\"amenity\"=>\"school\"" }, "geometry": { "type": "Point", "coordinates": [ 85.3200656, 27.6727609 ] } },
{ "type": "Feature", "properties": { "OGC_FID": 68, "OSM_ID": "1792687580", "NAME": "welhams college", "BARRIER": null, "HIGHWAY": null, "REF": null, "ADDRESS": null, "IS_IN": null, "PLACE": null, "MAN_MADE": null, "OTHER_TAGS": "\"amenity\"=>\"school\"" }, "geometry": { "type": "Point", "coordinates": [ 85.316079800000011, 27.6721649 ] } },
{ "type": "Feature", "properties": { "OGC_FID": 69, "OSM_ID": "1817226599", "NAME": "Buttercup Kindergarten", "BARRIER": null, "HIGHWAY": null, "REF": null, "ADDRESS": null, "IS_IN": null, "PLACE": null, "MAN_MADE": null, "OTHER_TAGS": "\"amenity\"=>\"kindergarten\"" }, "geometry": { "type": "Point", "coordinates": [ 85.3102139, 27.674821 ] } },
{ "type": "Feature", "properties": { "OGC_FID": 70, "OSM_ID": "1832593970", "NAME": "Nazareth EBS", "BARRIER": null, "HIGHWAY": null, "REF": null, "ADDRESS": null, "IS_IN": null, "PLACE": null, "MAN_MADE": null, "OTHER_TAGS": "\"amenity\"=>\"school\"" }, "geometry": { "type": "Point", "coordinates": [ 85.3033194, 27.6824782 ] } },
{ "type": "Feature", "properties": { "OGC_FID": 71, "OSM_ID": "1833834700", "NAME": "Everest Academy", "BARRIER": null, "HIGHWAY": null, "REF": null, "ADDRESS": null, "IS_IN": null, "PLACE": null, "MAN_MADE": null, "OTHER_TAGS": "\"amenity\"=>\"school\"" }, "geometry": { "type": "Point", "coordinates": [ 85.5274126, 27.6310433 ] } },
{ "type": "Feature", "properties": { "OGC_FID": 72, "OSM_ID": "1833834753", "NAME": "Gyankunja", "BARRIER": null, "HIGHWAY": null, "REF": null, "ADDRESS": null, "IS_IN": null, "PLACE": null, "MAN_MADE": null, "OTHER_TAGS": "\"amenity\"=>\"school\"" }, "geometry": { "type": "Point", "coordinates": [ 85.5164963, 27.6345455 ] } },
{ "type": "Feature", "properties": { "OGC_FID": 73, "OSM_ID": "1833834764", "NAME": "Hikari Kindergarden", "BARRIER": null, "HIGHWAY": null, "REF": null, "ADDRESS": null, "IS_IN": null, "PLACE": null, "MAN_MADE": null, "OTHER_TAGS": "\"amenity\"=>\"kindergarten\"" }, "geometry": { "type": "Point", "coordinates": [ 85.5196293, 27.6353827 ] } },
{ "type": "Feature", "properties": { "OGC_FID": 74, "OSM_ID": "1833834769", "NAME": "Himalaya School", "BARRIER": null, "HIGHWAY": null, "REF": null, "ADDRESS": null, "IS_IN": null, "PLACE": null, "MAN_MADE": null, "OTHER_TAGS": "\"amenity\"=>\"school\"" }, "geometry": { "type": "Point", "coordinates": [ 85.5274667, 27.6345747 ] } },
{ "type": "Feature", "properties": { "OGC_FID": 75, "OSM_ID": "1833834823", "NAME": "Jyoti Academy", "BARRIER": null, "HIGHWAY": null, "REF": null, "ADDRESS": null, "IS_IN": null, "PLACE": null, "MAN_MADE": null, "OTHER_TAGS": "\"amenity\"=>\"school\"" }, "geometry": { "type": "Point", "coordinates": [ 85.5251821, 27.6318507 ] } },
{ "type": "Feature", "properties": { "OGC_FID": 76, "OSM_ID": "1833834885", "NAME": "Kshitz School", "BARRIER": null, "HIGHWAY": null, "REF": null, "ADDRESS": null, "IS_IN": null, "PLACE": null, "MAN_MADE": null, "OTHER_TAGS": "\"amenity\"=>\"school\"" }, "geometry": { "type": "Point", "coordinates": [ 85.5279465, 27.6279972 ] } },
{ "type": "Feature", "properties": { "OGC_FID": 77, "OSM_ID": "1833834953", "NAME": "Samata School", "BARRIER": null, "HIGHWAY": null, "REF": null, "ADDRESS": null, "IS_IN": null, "PLACE": null, "MAN_MADE": null, "OTHER_TAGS": "\"amenity\"=>\"school\"" }, "geometry": { "type": "Point", "coordinates": [ 85.5286411, 27.6305205 ] } },
{ "type": "Feature", "properties": { "OGC_FID": 78, "OSM_ID": "1833834960", "NAME": "Shree Phulchoki Nursing Campus", "BARRIER": null, "HIGHWAY": null, "REF": null, "ADDRESS": null, "IS_IN": null, "PLACE": null, "MAN_MADE": null, "OTHER_TAGS": "\"amenity\"=>\"school\"" }, "geometry": { "type": "Point", "coordinates": [ 85.5277667, 27.6314948 ] } },
{ "type": "Feature", "properties": { "OGC_FID": 79, "OSM_ID": "1833834961", "NAME": "Siddhartha School", "BARRIER": null, "HIGHWAY": null, "REF": null, "ADDRESS": null, "IS_IN": null, "PLACE": null, "MAN_MADE": null, "OTHER_TAGS": "\"amenity\"=>\"school\"" }, "geometry": { "type": "Point", "coordinates": [ 85.517156300000011, 27.6333531 ] } },
{ "type": "Feature", "properties": { "OGC_FID": 80, "OSM_ID": "1833840823", "NAME": null, "BARRIER": null, "HIGHWAY": null, "REF": null, "ADDRESS": null, "IS_IN": null, "PLACE": null, "MAN_MADE": null, "OTHER_TAGS": "\"amenity\"=>\"school\"" }, "geometry": { "type": "Point", "coordinates": [ 85.5300685, 27.636029 ] } },
{ "type": "Feature", "properties": { "OGC_FID": 81, "OSM_ID": "1849349015", "NAME": "Patan Multiple Campus", "BARRIER": null, "HIGHWAY": null, "REF": null, "ADDRESS": null, "IS_IN": null, "PLACE": null, "MAN_MADE": null, "OTHER_TAGS": "\"amenity\"=>\"school\"" }, "geometry": { "type": "Point", "coordinates": [ 85.3213876, 27.6785826 ] } },
{ "type": "Feature", "properties": { "OGC_FID": 82, "OSM_ID": "1849454380", "NAME": "Patan Higher Secondary School", "BARRIER": null, "HIGHWAY": null, "REF": null, "ADDRESS": null, "IS_IN": null, "PLACE": null, "MAN_MADE": null, "OTHER_TAGS": "\"phone\"=>\"01-5521708, 01-5531443\", \"amenity\"=>\"school\"" }, "geometry": { "type": "Point", "coordinates": [ 85.3216148, 27.6787529 ] } },
{ "type": "Feature", "properties": { "OGC_FID": 83, "OSM_ID": "1875792493", "NAME": "Hill Bird Higher Secondary School", "BARRIER": null, "HIGHWAY": null, "REF": null, "ADDRESS": null, "IS_IN": null, "PLACE": null, "MAN_MADE": null, "OTHER_TAGS": "\"amenity\"=>\"school\"" }, "geometry": { "type": "Point", "coordinates": [ 84.445526, 27.6737467 ] } },
{ "type": "Feature", "properties": { "OGC_FID": 84, "OSM_ID": "1885265090", "NAME": "Tiny Seeds Kindergarten", "BARRIER": null, "HIGHWAY": null, "REF": null, "ADDRESS": null, "IS_IN": null, "PLACE": null, "MAN_MADE": null, "OTHER_TAGS": "\"amenity\"=>\"kindergarten\"" }, "geometry": { "type": "Point", "coordinates": [ 85.300230500000012, 27.7179859 ] } },
{ "type": "Feature", "properties": { "OGC_FID": 85, "OSM_ID": "1891533734", "NAME": "SeaGate Institute of Technology", "BARRIER": null, "HIGHWAY": null, "REF": null, "ADDRESS": null, "IS_IN": null, "PLACE": null, "MAN_MADE": null, "OTHER_TAGS": "\"amenity\"=>\"school\"" }, "geometry": { "type": "Point", "coordinates": [ 85.3184703, 27.6844202 ] } },
{ "type": "Feature", "properties": { "OGC_FID": 86, "OSM_ID": "1892796767", "NAME": "Sachdeva Institute", "BARRIER": null, "HIGHWAY": null, "REF": null, "ADDRESS": null, "IS_IN": null, "PLACE": null, "MAN_MADE": null, "OTHER_TAGS": "\"amenity\"=>\"school\"" }, "geometry": { "type": "Point", "coordinates": [ 85.3192223, 27.7032639 ] } },
{ "type": "Feature", "properties": { "OGC_FID": 87, "OSM_ID": "1894371660", "NAME": "Deneb International School", "BARRIER": null, "HIGHWAY": null, "REF": null, "ADDRESS": null, "IS_IN": null, "PLACE": null, "MAN_MADE": null, "OTHER_TAGS": "\"amenity\"=>\"school\", \"building\"=>\"yes\"" }, "geometry": { "type": "Point", "coordinates": [ 85.3318806, 27.6915987 ] } },
{ "type": "Feature", "properties": { "OGC_FID": 88, "OSM_ID": "1899470621", "NAME": "Sahayogi Baikalpik Vidyalaya", "BARRIER": null, "HIGHWAY": null, "REF": null, "ADDRESS": null, "IS_IN": null, "PLACE": null, "MAN_MADE": null, "OTHER_TAGS": "\"amenity\"=>\"school\"" }, "geometry": { "type": "Point", "coordinates": [ 85.3316446, 27.7209655 ] } },
{ "type": "Feature", "properties": { "OGC_FID": 89, "OSM_ID": "1899516188", "NAME": "Namche Primary School", "BARRIER": null, "HIGHWAY": null, "REF": null, "ADDRESS": null, "IS_IN": null, "PLACE": null, "MAN_MADE": null, "OTHER_TAGS": "\"amenity\"=>\"school\", \"int_name\"=>\"Shree Madhyamik Vidhyalaya\", \"designation\"=>\"Primary School\"" }, "geometry": { "type": "Point", "coordinates": [ 86.7113015, 27.8048692 ] } },
{ "type": "Feature", "properties": { "OGC_FID": 90, "OSM_ID": "1904216004", "NAME": "Tibetan Thanka training school", "BARRIER": null, "HIGHWAY": null, "REF": null, "ADDRESS": null, "IS_IN": null, "PLACE": null, "MAN_MADE": null, "OTHER_TAGS": "\"amenity\"=>\"school\"" }, "geometry": { "type": "Point", "coordinates": [ 85.3248365, 27.6748737 ] } },
{ "type": "Feature", "properties": { "OGC_FID": 91, "OSM_ID": "1904243450", "NAME": "Yamantaka thanka school", "BARRIER": null, "HIGHWAY": null, "REF": null, "ADDRESS": null, "IS_IN": null, "PLACE": null, "MAN_MADE": null, "OTHER_TAGS": "\"amenity\"=>\"school\"" }, "geometry": { "type": "Point", "coordinates": [ 85.3243351, 27.6744995 ] } },
{ "type": "Feature", "properties": { "OGC_FID": 92, "OSM_ID": "1904559425", "NAME": "Small Heaven School, Aaptari", "BARRIER": null, "HIGHWAY": null, "REF": null, "ADDRESS": null, "IS_IN": null, "PLACE": null, "MAN_MADE": null, "OTHER_TAGS": "\"amenity\"=>\"school\"" }, "geometry": { "type": "Point", "coordinates": [ 84.436653, 27.7042326 ] } },
{ "type": "Feature", "properties": { "OGC_FID": 93, "OSM_ID": "1905155339", "NAME": "Euro Kids", "BARRIER": null, "HIGHWAY": null, "REF": null, "ADDRESS": null, "IS_IN": null, "PLACE": null, "MAN_MADE": null, "OTHER_TAGS": "\"amenity\"=>\"kindergarten\"" }, "geometry": { "type": "Point", "coordinates": [ 85.3437528, 27.739867 ] } },
{ "type": "Feature", "properties": { "OGC_FID": 94, "OSM_ID": "1905155374", "NAME": "Saa Sushila Arts Academy", "BARRIER": null, "HIGHWAY": null, "REF": null, "ADDRESS": null, "IS_IN": null, "PLACE": null, "MAN_MADE": null, "OTHER_TAGS": "\"amenity\"=>\"school\"" }, "geometry": { "type": "Point", "coordinates": [ 85.343658, 27.7385565 ] } },
{ "type": "Feature", "properties": { "OGC_FID": 95, "OSM_ID": "1905312697", "NAME": "New Summit School", "BARRIER": null, "HIGHWAY": null, "REF": null, "ADDRESS": null, "IS_IN": null, "PLACE": null, "MAN_MADE": null, "OTHER_TAGS": "\"amenity\"=>\"school\"" }, "geometry": { "type": "Point", "coordinates": [ 85.3332513, 27.7038766 ] } },
{ "type": "Feature", "properties": { "OGC_FID": 96, "OSM_ID": "1905315238", "NAME": "Unilink Education", "BARRIER": null, "HIGHWAY": null, "REF": null, "ADDRESS": null, "IS_IN": null, "PLACE": null, "MAN_MADE": null, "OTHER_TAGS": "\"amenity\"=>\"school\"" }, "geometry": { "type": "Point", "coordinates": [ 85.32119440000001, 27.6997965 ] } },
{ "type": "Feature", "properties": { "OGC_FID": 97, "OSM_ID": "1905316299", "NAME": "NAME", "BARRIER": null, "HIGHWAY": null, "REF": null, "ADDRESS": null, "IS_IN": null, "PLACE": null, "MAN_MADE": null, "OTHER_TAGS": "\"amenity\"=>\"school\"" }, "geometry": { "type": "Point", "coordinates": [ 85.321874900000012, 27.7002281 ] } },
{ "type": "Feature", "properties": { "OGC_FID": 98, "OSM_ID": "1905319787", "NAME": "Beginners' Home academy", "BARRIER": null, "HIGHWAY": null, "REF": null, "ADDRESS": null, "IS_IN": null, "PLACE": null, "MAN_MADE": null, "OTHER_TAGS": "\"amenity\"=>\"school\"" }, "geometry": { "type": "Point", "coordinates": [ 85.3220186, 27.7008865 ] } },
{ "type": "Feature", "properties": { "OGC_FID": 99, "OSM_ID": "1905319789", "NAME": "Westbound International college", "BARRIER": null, "HIGHWAY": null, "REF": null, "ADDRESS": null, "IS_IN": null, "PLACE": null, "MAN_MADE": null, "OTHER_TAGS": "\"amenity\"=>\"college\"" }, "geometry": { "type": "Point", "coordinates": [ 85.3219524, 27.7005535 ] } },
{ "type": "Feature", "properties": { "OGC_FID": 100, "OSM_ID": "1905332715", "NAME": "Kathmandu valley education center", "BARRIER": null, "HIGHWAY": null, "REF": null, "ADDRESS": null, "IS_IN": null, "PLACE": null, "MAN_MADE": null, "OTHER_TAGS": "\"amenity\"=>\"school\"" }, "geometry": { "type": "Point", "coordinates": [ 85.3222017, 27.701823 ] } },
{ "type": "Feature", "properties": { "OGC_FID": 101, "OSM_ID": "1905340540", "NAME": "Nepalgunj medical college", "BARRIER": null, "HIGHWAY": null, "REF": null, "ADDRESS": null, "IS_IN": null, "PLACE": null, "MAN_MADE": null, "OTHER_TAGS": "\"amenity\"=>\"college\"" }, "geometry": { "type": "Point", "coordinates": [ 85.322713, 27.702767 ] } },
{ "type": "Feature", "properties": { "OGC_FID": 102, "OSM_ID": "1905343593", "NAME": "American education foundation", "BARRIER": null, "HIGHWAY": null, "REF": null, "ADDRESS": null, "IS_IN": null, "PLACE": null, "MAN_MADE": null, "OTHER_TAGS": "\"amenity\"=>\"school\"" }, "geometry": { "type": "Point", "coordinates": [ 85.3226367, 27.7029612 ] } },
{ "type": "Feature", "properties": { "OGC_FID": 103, "OSM_ID": "1905354084", "NAME": "Rising ray bording school", "BARRIER": null, "HIGHWAY": null, "REF": null, "ADDRESS": null, "IS_IN": null, "PLACE": null, "MAN_MADE": null, "OTHER_TAGS": "\"amenity\"=>\"school\"" }, "geometry": { "type": "Point", "coordinates": [ 85.3230597, 27.7026918 ] } },
{ "type": "Feature", "properties": { "OGC_FID": 104, "OSM_ID": "1905356769", "NAME": "New Don bosco for kids", "BARRIER": null, "HIGHWAY": null, "REF": null, "ADDRESS": null, "IS_IN": null, "PLACE": null, "MAN_MADE": null, "OTHER_TAGS": "\"amenity\"=>\"kindergarten\"" }, "geometry": { "type": "Point", "coordinates": [ 85.323351800000012, 27.702559 ] } },
{ "type": "Feature", "properties": { "OGC_FID": 105, "OSM_ID": "1905359703", "NAME": "CIMA CA classes", "BARRIER": null, "HIGHWAY": null, "REF": null, "ADDRESS": null, "IS_IN": null, "PLACE": null, "MAN_MADE": null, "OTHER_TAGS": "\"amenity\"=>\"school\"" }, "geometry": { "type": "Point", "coordinates": [ 85.3244555, 27.7022079 ] } },
{ "type": "Feature", "properties": { "OGC_FID": 106, "OSM_ID": "1905365904", "NAME": "Vibrant Entrance Preparation", "BARRIER": null, "HIGHWAY": null, "REF": null, "ADDRESS": null, "IS_IN": null, "PLACE": null, "MAN_MADE": null, "OTHER_TAGS": "\"amenity\"=>\"school\"" }, "geometry": { "type": "Point", "coordinates": [ 85.3238593, 27.7012143 ] } },
{ "type": "Feature", "properties": { "OGC_FID": 107, "OSM_ID": "1905368913", "NAME": "CCMA college", "BARRIER": null, "HIGHWAY": null, "REF": null, "ADDRESS": null, "IS_IN": null, "PLACE": null, "MAN_MADE": null, "OTHER_TAGS": "\"amenity\"=>\"college\"" }, "geometry": { "type": "Point", "coordinates": [ 85.3236696, 27.7010154 ] } },
{ "type": "Feature", "properties": { "OGC_FID": 108, "OSM_ID": "1905389786", "NAME": "Orbit international educhation", "BARRIER": null, "HIGHWAY": null, "REF": null, "ADDRESS": null, "IS_IN": null, "PLACE": null, "MAN_MADE": null, "OTHER_TAGS": "\"amenity\"=>\"school\"" }, "geometry": { "type": "Point", "coordinates": [ 85.3232076, 27.7057552 ] } },
{ "type": "Feature", "properties": { "OGC_FID": 109, "OSM_ID": "1905390641", "NAME": "Universal language and computer institute", "BARRIER": null, "HIGHWAY": null, "REF": null, "ADDRESS": null, "IS_IN": null, "PLACE": null, "MAN_MADE": null, "OTHER_TAGS": "\"amenity\"=>\"school\"" }, "geometry": { "type": "Point", "coordinates": [ 85.3250327, 27.7049624 ] } },
{ "type": "Feature", "properties": { "OGC_FID": 110, "OSM_ID": "1905959107", "NAME": "Bhanubhakta Memorial School", "BARRIER": null, "HIGHWAY": null, "REF": null, "ADDRESS": null, "IS_IN": null, "PLACE": null, "MAN_MADE": null, "OTHER_TAGS": "\"amenity\"=>\"school\"" }, "geometry": { "type": "Point", "coordinates": [ 84.433048, 27.7038656 ] } },
{ "type": "Feature", "properties": { "OGC_FID": 111, "OSM_ID": "1905962478", "NAME": "Balkumari English School", "BARRIER": null, "HIGHWAY": null, "REF": null, "ADDRESS": null, "IS_IN": null, "PLACE": null, "MAN_MADE": null, "OTHER_TAGS": "\"amenity\"=>\"school\"" }, "geometry": { "type": "Point", "coordinates": [ 84.4259026, 27.7006549 ] } },
{ "type": "Feature", "properties": { "OGC_FID": 112, "OSM_ID": "1905968165", "NAME": "Man Shikshya Mandir English School", "BARRIER": null, "HIGHWAY": null, "REF": null, "ADDRESS": null, "IS_IN": null, "PLACE": null, "MAN_MADE": null, "OTHER_TAGS": "\"amenity\"=>\"school\"" }, "geometry": { "type": "Point", "coordinates": [ 84.4414969, 27.7013768 ] } },
{ "type": "Feature", "properties": { "OGC_FID": 113, "OSM_ID": "1905992889", "NAME": "CMC Nursing College", "BARRIER": null, "HIGHWAY": null, "REF": null, "ADDRESS": null, "IS_IN": null, "PLACE": null, "MAN_MADE": null, "OTHER_TAGS": "\"amenity\"=>\"college\"" }, "geometry": { "type": "Point", "coordinates": [ 84.4376565, 27.6772958 ] } },
{ "type": "Feature", "properties": { "OGC_FID": 114, "OSM_ID": "1905992890", "NAME": "Bharatpur Secondary School", "BARRIER": null, "HIGHWAY": null, "REF": null, "ADDRESS": null, "IS_IN": null, "PLACE": null, "MAN_MADE": null, "OTHER_TAGS": "\"amenity\"=>\"school\"" }, "geometry": { "type": "Point", "coordinates": [ 84.43802620000001, 27.6738639 ] } },
{ "type": "Feature", "properties": { "OGC_FID": 115, "OSM_ID": "1906995708", "NAME": "Stepping Stone English School", "BARRIER": null, "HIGHWAY": null, "REF": null, "ADDRESS": null, "IS_IN": null, "PLACE": null, "MAN_MADE": null, "OTHER_TAGS": "\"amenity\"=>\"school\"" }, "geometry": { "type": "Point", "coordinates": [ 80.5652692, 28.7016392 ] } },
{ "type": "Feature", "properties": { "OGC_FID": 116, "OSM_ID": "1907900678", "NAME": "Wonder Years Montessori", "BARRIER": null, "HIGHWAY": null, "REF": null, "ADDRESS": null, "IS_IN": null, "PLACE": null, "MAN_MADE": null, "OTHER_TAGS": "\"amenity\"=>\"kindergarten\"" }, "geometry": { "type": "Point", "coordinates": [ 85.3328101, 27.7247694 ] } },
{ "type": "Feature", "properties": { "OGC_FID": 117, "OSM_ID": "1911303392", "NAME": "Chiran-Milan Bishwoshanti Campus", "BARRIER": null, "HIGHWAY": null, "REF": null, "ADDRESS": null, "IS_IN": null, "PLACE": null, "MAN_MADE": null, "OTHER_TAGS": "\"amenity\"=>\"college\"" }, "geometry": { "type": "Point", "coordinates": [ 85.344993800000012, 27.7411795 ] } },
{ "type": "Feature", "properties": { "OGC_FID": 118, "OSM_ID": "1914258275", "NAME": "Brilliant Multiple Campus", "BARRIER": null, "HIGHWAY": null, "REF": null, "ADDRESS": null, "IS_IN": null, "PLACE": null, "MAN_MADE": null, "OTHER_TAGS": "\"amenity\"=>\"college\"" }, "geometry": { "type": "Point", "coordinates": [ 85.3410942, 27.71399 ] } },
{ "type": "Feature", "properties": { "OGC_FID": 119, "OSM_ID": "1917102703", "NAME": "Maharajgunj Nursing Campus", "BARRIER": null, "HIGHWAY": null, "REF": null, "ADDRESS": null, "IS_IN": null, "PLACE": null, "MAN_MADE": null, "OTHER_TAGS": "\"amenity\"=>\"college\"" }, "geometry": { "type": "Point", "coordinates": [ 85.3315215, 27.7362438 ] } },
{ "type": "Feature", "properties": { "OGC_FID": 120, "OSM_ID": "1917102707", "NAME": "Montessori Kinderworld", "BARRIER": null, "HIGHWAY": null, "REF": null, "ADDRESS": null, "IS_IN": null, "PLACE": null, "MAN_MADE": null, "OTHER_TAGS": "\"amenity\"=>\"kindergarten\"" }, "geometry": { "type": "Point", "coordinates": [ 85.3347408, 27.7376906 ] } },
{ "type": "Feature", "properties": { "OGC_FID": 121, "OSM_ID": "1917102739", "NAME": "Orient College", "BARRIER": null, "HIGHWAY": null, "REF": null, "ADDRESS": null, "IS_IN": null, "PLACE": null, "MAN_MADE": null, "OTHER_TAGS": "\"amenity\"=>\"college\"" }, "geometry": { "type": "Point", "coordinates": [ 85.3366221, 27.7389839 ] } },
{ "type": "Feature", "properties": { "OGC_FID": 122, "OSM_ID": "1918582159", "NAME": "Institute of Medicine", "BARRIER": null, "HIGHWAY": null, "REF": null, "ADDRESS": null, "IS_IN": null, "PLACE": null, "MAN_MADE": null, "OTHER_TAGS": "\"amenity\"=>\"college\"" }, "geometry": { "type": "Point", "coordinates": [ 85.3292846, 27.735414 ] } },
{ "type": "Feature", "properties": { "OGC_FID": 123, "OSM_ID": "1923834353", "NAME": "Garden of Wisdom School", "BARRIER": null, "HIGHWAY": null, "REF": null, "ADDRESS": null, "IS_IN": null, "PLACE": null, "MAN_MADE": null, "OTHER_TAGS": "\"amenity\"=>\"school\"" }, "geometry": { "type": "Point", "coordinates": [ 85.34105790000001, 27.6784452 ] } },
{ "type": "Feature", "properties": { "OGC_FID": 124, "OSM_ID": "1923834368", "NAME": "Valley College of Engineering", "BARRIER": null, "HIGHWAY": null, "REF": null, "ADDRESS": null, "IS_IN": null, "PLACE": null, "MAN_MADE": null, "OTHER_TAGS": "\"amenity\"=>\"college\"" }, "geometry": { "type": "Point", "coordinates": [ 85.341397, 27.6784538 ] } },
{ "type": "Feature", "properties": { "OGC_FID": 125, "OSM_ID": "1923848923", "NAME": "Baba Education Academy", "BARRIER": null, "HIGHWAY": null, "REF": null, "ADDRESS": null, "IS_IN": null, "PLACE": null, "MAN_MADE": null, "OTHER_TAGS": "\"amenity\"=>\"school\", \"building\"=>\"yes\"" }, "geometry": { "type": "Point", "coordinates": [ 85.34781430000001, 27.6790867 ] } },
{ "type": "Feature", "properties": { "OGC_FID": 126, "OSM_ID": "1927427269", "NAME": "Elco Training Institue", "BARRIER": null, "HIGHWAY": null, "REF": null, "ADDRESS": null, "IS_IN": null, "PLACE": null, "MAN_MADE": null, "OTHER_TAGS": "\"amenity\"=>\"school\", \"building\"=>\"yes\"" }, "geometry": { "type": "Point", "coordinates": [ 85.3480394, 27.6782677 ] } },
{ "type": "Feature", "properties": { "OGC_FID": 127, "OSM_ID": "1927427289", "NAME": "Reflection Tuition Institute", "BARRIER": null, "HIGHWAY": null, "REF": null, "ADDRESS": null, "IS_IN": null, "PLACE": null, "MAN_MADE": null, "OTHER_TAGS": "\"amenity\"=>\"school\", \"building\"=>\"yes\"" }, "geometry": { "type": "Point", "coordinates": [ 85.3467363, 27.6773916 ] } },
{ "type": "Feature", "properties": { "OGC_FID": 128, "OSM_ID": "1927515429", "NAME": "Engineering Academy of Science and Technology", "BARRIER": null, "HIGHWAY": null, "REF": null, "ADDRESS": null, "IS_IN": null, "PLACE": null, "MAN_MADE": null, "OTHER_TAGS": "\"amenity\"=>\"college\"" }, "geometry": { "type": "Point", "coordinates": [ 85.342649900000012, 27.674246 ] } },
{ "type": "Feature", "properties": { "OGC_FID": 129, "OSM_ID": "1933901164", "NAME": "Dekhuri Multiple Campus,", "BARRIER": null, "HIGHWAY": null, "REF": null, "ADDRESS": null, "IS_IN": null, "PLACE": null, "MAN_MADE": null, "OTHER_TAGS": "\"amenity\"=>\"school\", \"building\"=>\"yes\"" }, "geometry": { "type": "Point", "coordinates": [ 82.510277800000011, 27.8763788 ] } },
{ "type": "Feature", "properties": { "OGC_FID": 130, "OSM_ID": "1936280980", "NAME": "College of Applied Food and Dairy Technology", "BARRIER": null, "HIGHWAY": null, "REF": null, "ADDRESS": null, "IS_IN": null, "PLACE": null, "MAN_MADE": null, "OTHER_TAGS": "\"amenity\"=>\"college\"" }, "geometry": { "type": "Point", "coordinates": [ 85.337994200000011, 27.6865485 ] } },
{ "type": "Feature", "properties": { "OGC_FID": 131, "OSM_ID": "1936281000", "NAME": "Nesting School", "BARRIER": null, "HIGHWAY": null, "REF": null, "ADDRESS": null, "IS_IN": null, "PLACE": null, "MAN_MADE": null, "OTHER_TAGS": "\"amenity\"=>\"kindergarten\"" }, "geometry": { "type": "Point", "coordinates": [ 85.33541910000001, 27.6816625 ] } },
{ "type": "Feature", "properties": { "OGC_FID": 132, "OSM_ID": "1936872463", "NAME": "Jai Bageshwori High School", "BARRIER": null, "HIGHWAY": null, "REF": null, "ADDRESS": null, "IS_IN": null, "PLACE": null, "MAN_MADE": null, "OTHER_TAGS": "\"amenity\"=>\"school\"" }, "geometry": { "type": "Point", "coordinates": [ 81.6221379, 28.0621445 ] } },
{ "type": "Feature", "properties": { "OGC_FID": 133, "OSM_ID": "1937647445", "NAME": "Nepal administrative staff college", "BARRIER": null, "HIGHWAY": null, "REF": null, "ADDRESS": null, "IS_IN": null, "PLACE": null, "MAN_MADE": null, "OTHER_TAGS": "\"amenity\"=>\"college\"" }, "geometry": { "type": "Point", "coordinates": [ 85.3122305, 27.6709148 ] } },
{ "type": "Feature", "properties": { "OGC_FID": 134, "OSM_ID": "1937688845", "NAME": "CPS HSS college", "BARRIER": null, "HIGHWAY": null, "REF": null, "ADDRESS": null, "IS_IN": null, "PLACE": null, "MAN_MADE": null, "OTHER_TAGS": "\"amenity\"=>\"college\"" }, "geometry": { "type": "Point", "coordinates": [ 85.3178574, 27.6672725 ] } },
{ "type": "Feature", "properties": { "OGC_FID": 135, "OSM_ID": "1937705143", "NAME": "Himalayan International Kindergarden", "BARRIER": null, "HIGHWAY": null, "REF": null, "ADDRESS": null, "IS_IN": null, "PLACE": null, "MAN_MADE": null, "OTHER_TAGS": "\"amenity\"=>\"school\"" }, "geometry": { "type": "Point", "coordinates": [ 85.3058314, 27.6739072 ] } },
{ "type": "Feature", "properties": { "OGC_FID": 136, "OSM_ID": "1937710541", "NAME": "International Playgroup and Play School", "BARRIER": null, "HIGHWAY": null, "REF": null, "ADDRESS": null, "IS_IN": null, "PLACE": null, "MAN_MADE": null, "OTHER_TAGS": "\"amenity\"=>\"school\"" }, "geometry": { "type": "Point", "coordinates": [ 85.3057144, 27.6785395 ] } },
{ "type": "Feature", "properties": { "OGC_FID": 137, "OSM_ID": "1937710579", "NAME": "Montessori Kopila", "BARRIER": null, "HIGHWAY": null, "REF": null, "ADDRESS": null, "IS_IN": null, "PLACE": null, "MAN_MADE": null, "OTHER_TAGS": "\"amenity\"=>\"kindergarten\"" }, "geometry": { "type": "Point", "coordinates": [ 85.3042876, 27.6784856 ] } },
{ "type": "Feature", "properties": { "OGC_FID": 138, "OSM_ID": "1937717782", "NAME": "Aptech computer education", "BARRIER": null, "HIGHWAY": null, "REF": null, "ADDRESS": null, "IS_IN": null, "PLACE": null, "MAN_MADE": null, "OTHER_TAGS": "\"amenity\"=>\"school\"" }, "geometry": { "type": "Point", "coordinates": [ 85.3187719, 27.6715966 ] } },
{ "type": "Feature", "properties": { "OGC_FID": 139, "OSM_ID": "1937718395", "NAME": "Gyan Sikha Boarding High School", "BARRIER": null, "HIGHWAY": null, "REF": null, "ADDRESS": null, "IS_IN": null, "PLACE": null, "MAN_MADE": null, "OTHER_TAGS": "\"amenity\"=>\"school\"" }, "geometry": { "type": "Point", "coordinates": [ 85.31751220000001, 27.6732994 ] } },
{ "type": "Feature", "properties": { "OGC_FID": 140, "OSM_ID": "1937718402", "NAME": "Himalayan Ayurveda Medical Science College", "BARRIER": null, "HIGHWAY": null, "REF": null, "ADDRESS": null, "IS_IN": null, "PLACE": null, "MAN_MADE": null, "OTHER_TAGS": "\"amenity\"=>\"college\"" }, "geometry": { "type": "Point", "coordinates": [ 85.315503, 27.6727107 ] } },
{ "type": "Feature", "properties": { "OGC_FID": 141, "OSM_ID": "1937718408", "NAME": "Himalayan White House Open School", "BARRIER": null, "HIGHWAY": null, "REF": null, "ADDRESS": null, "IS_IN": null, "PLACE": null, "MAN_MADE": null, "OTHER_TAGS": "\"amenity\"=>\"school\"" }, "geometry": { "type": "Point", "coordinates": [ 85.3163134, 27.6755264 ] } },
{ "type": "Feature", "properties": { "OGC_FID": 142, "OSM_ID": "1937718461", "NAME": "Lovely Home Child Care", "BARRIER": null, "HIGHWAY": null, "REF": null, "ADDRESS": null, "IS_IN": null, "PLACE": null, "MAN_MADE": null, "OTHER_TAGS": "\"amenity\"=>\"kindergarten\"" }, "geometry": { "type": "Point", "coordinates": [ 85.315846900000011, 27.6739548 ] } },
{ "type": "Feature", "properties": { "OGC_FID": 143, "OSM_ID": "1937718475", "NAME": "Prerana Kids Courtyard", "BARRIER": null, "HIGHWAY": null, "REF": null, "ADDRESS": null, "IS_IN": null, "PLACE": null, "MAN_MADE": null, "OTHER_TAGS": "\"amenity\"=>\"kindergarten\"" }, "geometry": { "type": "Point", "coordinates": [ 85.315743, 27.6742901 ] } },
{ "type": "Feature", "properties": { "OGC_FID": 144, "OSM_ID": "1937718496", "NAME": "Sagarmatha Boarding High School", "BARRIER": null, "HIGHWAY": null, "REF": null, "ADDRESS": null, "IS_IN": null, "PLACE": null, "MAN_MADE": null, "OTHER_TAGS": "\"amenity\"=>\"school\"" }, "geometry": { "type": "Point", "coordinates": [ 85.3156271, 27.6742054 ] } },
{ "type": "Feature", "properties": { "OGC_FID": 145, "OSM_ID": "1937721976", "NAME": "Aberdeen Int'l College", "BARRIER": null, "HIGHWAY": null, "REF": null, "ADDRESS": null, "IS_IN": null, "PLACE": null, "MAN_MADE": null, "OTHER_TAGS": "\"amenity\"=>\"school\"" }, "geometry": { "type": "Point", "coordinates": [ 85.3177053, 27.6728012 ] } },
{ "type": "Feature", "properties": { "OGC_FID": 146, "OSM_ID": "1937721997", "NAME": "Vidya Vikash Boarding High School", "BARRIER": null, "HIGHWAY": null, "REF": null, "ADDRESS": null, "IS_IN": null, "PLACE": null, "MAN_MADE": null, "OTHER_TAGS": "\"amenity\"=>\"school\"" }, "geometry": { "type": "Point", "coordinates": [ 85.318842600000011, 27.6732753 ] } },
{ "type": "Feature", "properties": { "OGC_FID": 147, "OSM_ID": "1939209004", "NAME": "apex life school", "BARRIER": null, "HIGHWAY": null, "REF": null, "ADDRESS": null, "IS_IN": null, "PLACE": null, "MAN_MADE": null, "OTHER_TAGS": "\"amenity\"=>\"school\"" }, "geometry": { "type": "Point", "coordinates": [ 85.3377305, 27.6990267 ] } },
{ "type": "Feature", "properties": { "OGC_FID": 148, "OSM_ID": "1941204615", "NAME": null, "BARRIER": null, "HIGHWAY": null, "REF": null, "ADDRESS": null, "IS_IN": null, "PLACE": null, "MAN_MADE": null, "OTHER_TAGS": "\"amenity\"=>\"college\", \"name:ne\"=>\"  \"" }, "geometry": { "type": "Point", "coordinates": [ 85.3271716, 27.6871904 ] } },
{ "type": "Feature", "properties": { "OGC_FID": 149, "OSM_ID": "1945166356", "NAME": "Shradanjalee EBS", "BARRIER": null, "HIGHWAY": null, "REF": null, "ADDRESS": null, "IS_IN": null, "PLACE": null, "MAN_MADE": null, "OTHER_TAGS": "\"amenity\"=>\"school\"" }, "geometry": { "type": "Point", "coordinates": [ 85.3048076, 27.6763812 ] } },
{ "type": "Feature", "properties": { "OGC_FID": 150, "OSM_ID": "1960165934", "NAME": null, "BARRIER": null, "HIGHWAY": null, "REF": null, "ADDRESS": null, "IS_IN": null, "PLACE": null, "MAN_MADE": null, "OTHER_TAGS": "\"amenity\"=>\"school\"" }, "geometry": { "type": "Point", "coordinates": [ 84.451937300000012, 27.6860501 ] } },
{ "type": "Feature", "properties": { "OGC_FID": 151, "OSM_ID": "1962290903", "NAME": "IEC College of Art & Fashion", "BARRIER": null, "HIGHWAY": null, "REF": null, "ADDRESS": null, "IS_IN": null, "PLACE": null, "MAN_MADE": null, "OTHER_TAGS": "\"phone\"=>\"014432178\", \"amenity\"=>\"college\", \"website\"=>\"www.ieccollege.com.np\"" }, "geometry": { "type": "Point", "coordinates": [ 85.3365159, 27.7233063 ] } },
{ "type": "Feature", "properties": { "OGC_FID": 152, "OSM_ID": "1962367562", "NAME": "Kathmandu English School", "BARRIER": null, "HIGHWAY": null, "REF": null, "ADDRESS": null, "IS_IN": null, "PLACE": null, "MAN_MADE": null, "OTHER_TAGS": "\"phone\"=>\"+977 01 4414369\", \"amenity\"=>\"school\"" }, "geometry": { "type": "Point", "coordinates": [ 85.332439900000011, 27.7132927 ] } },
{ "type": "Feature", "properties": { "OGC_FID": 153, "OSM_ID": "1967824798", "NAME": "Everest College of Multiple Studies", "BARRIER": null, "HIGHWAY": null, "REF": null, "ADDRESS": null, "IS_IN": null, "PLACE": null, "MAN_MADE": null, "OTHER_TAGS": "\"amenity\"=>\"college\"" }, "geometry": { "type": "Point", "coordinates": [ 85.3128745, 27.719856 ] } },
{ "type": "Feature", "properties": { "OGC_FID": 154, "OSM_ID": "1967824833", "NAME": "Westwood International Pre School", "BARRIER": null, "HIGHWAY": null, "REF": null, "ADDRESS": null, "IS_IN": null, "PLACE": null, "MAN_MADE": null, "OTHER_TAGS": "\"amenity\"=>\"school\"" }, "geometry": { "type": "Point", "coordinates": [ 85.31344390000001, 27.7225939 ] } },
{ "type": "Feature", "properties": { "OGC_FID": 155, "OSM_ID": "1974851056", "NAME": "Bhadra Kumari School", "BARRIER": null, "HIGHWAY": null, "REF": null, "ADDRESS": null, "IS_IN": null, "PLACE": null, "MAN_MADE": null, "OTHER_TAGS": "\"amenity\"=>\"school\"" }, "geometry": { "type": "Point", "coordinates": [ 84.3919, 27.6547075 ] } },
{ "type": "Feature", "properties": { "OGC_FID": 156, "OSM_ID": "1977514708", "NAME": "Kinder Care International", "BARRIER": null, "HIGHWAY": null, "REF": null, "ADDRESS": null, "IS_IN": null, "PLACE": null, "MAN_MADE": null, "OTHER_TAGS": "\"amenity\"=>\"school\"" }, "geometry": { "type": "Point", "coordinates": [ 85.3096223, 27.7204411 ] } },
{ "type": "Feature", "properties": { "OGC_FID": 157, "OSM_ID": "1979178693", "NAME": "Sacred Cosmos International Education Foundation Pre School", "BARRIER": null, "HIGHWAY": null, "REF": null, "ADDRESS": null, "IS_IN": null, "PLACE": null, "MAN_MADE": null, "OTHER_TAGS": "\"amenity\"=>\"school\"" }, "geometry": { "type": "Point", "coordinates": [ 85.313203800000011, 27.7260679 ] } },
{ "type": "Feature", "properties": { "OGC_FID": 158, "OSM_ID": "1980952242", "NAME": null, "BARRIER": null, "HIGHWAY": null, "REF": null, "ADDRESS": null, "IS_IN": null, "PLACE": null, "MAN_MADE": null, "OTHER_TAGS": "\"amenity\"=>\"school\"" }, "geometry": { "type": "Point", "coordinates": [ 84.1579877, 28.1962022 ] } },
{ "type": "Feature", "properties": { "OGC_FID": 159, "OSM_ID": "1982131524", "NAME": "Cute Child's Montessori", "BARRIER": null, "HIGHWAY": null, "REF": null, "ADDRESS": null, "IS_IN": null, "PLACE": null, "MAN_MADE": null, "OTHER_TAGS": "\"amenity\"=>\"school\"" }, "geometry": { "type": "Point", "coordinates": [ 85.312676700000011, 27.7283845 ] } },
{ "type": "Feature", "properties": { "OGC_FID": 160, "OSM_ID": "1989508667", "NAME": "NavaJyoti College of Management", "BARRIER": null, "HIGHWAY": null, "REF": null, "ADDRESS": null, "IS_IN": null, "PLACE": null, "MAN_MADE": null, "OTHER_TAGS": "\"amenity\"=>\"college\"" }, "geometry": { "type": "Point", "coordinates": [ 85.3483135, 27.6824944 ] } },
{ "type": "Feature", "properties": { "OGC_FID": 161, "OSM_ID": "1992068548", "NAME": "Loyalty Academy", "BARRIER": null, "HIGHWAY": null, "REF": null, "ADDRESS": null, "IS_IN": null, "PLACE": null, "MAN_MADE": null, "OTHER_TAGS": "\"amenity\"=>\"college\"" }, "geometry": { "type": "Point", "coordinates": [ 85.3539085, 27.7369338 ] } },
{ "type": "Feature", "properties": { "OGC_FID": 162, "OSM_ID": "1996610093", "NAME": "Himalayan WhiteHouse International College", "BARRIER": null, "HIGHWAY": null, "REF": null, "ADDRESS": null, "IS_IN": null, "PLACE": null, "MAN_MADE": null, "OTHER_TAGS": "\"amenity\"=>\"college\"" }, "geometry": { "type": "Point", "coordinates": [ 85.3374622, 27.6944094 ] } },
{ "type": "Feature", "properties": { "OGC_FID": 163, "OSM_ID": "1996610766", "NAME": "Pathshala Nepal", "BARRIER": null, "HIGHWAY": null, "REF": null, "ADDRESS": null, "IS_IN": null, "PLACE": null, "MAN_MADE": null, "OTHER_TAGS": "\"amenity\"=>\"school\"" }, "geometry": { "type": "Point", "coordinates": [ 85.3336734, 27.6942291 ] } },
{ "type": "Feature", "properties": { "OGC_FID": 164, "OSM_ID": "1996639812", "NAME": "King's College", "BARRIER": null, "HIGHWAY": null, "REF": null, "ADDRESS": null, "IS_IN": null, "PLACE": null, "MAN_MADE": null, "OTHER_TAGS": "\"amenity\"=>\"college\"" }, "geometry": { "type": "Point", "coordinates": [ 85.33866780000001, 27.6995802 ] } },
{ "type": "Feature", "properties": { "OGC_FID": 165, "OSM_ID": "1996650874", "NAME": "Institute of International Management Science", "BARRIER": null, "HIGHWAY": null, "REF": null, "ADDRESS": null, "IS_IN": null, "PLACE": null, "MAN_MADE": null, "OTHER_TAGS": "\"amenity\"=>\"college\"" }, "geometry": { "type": "Point", "coordinates": [ 85.332132, 27.7087943 ] } },
{ "type": "Feature", "properties": { "OGC_FID": 166, "OSM_ID": "1996650875", "NAME": "International Centre for Academics", "BARRIER": null, "HIGHWAY": null, "REF": null, "ADDRESS": null, "IS_IN": null, "PLACE": null, "MAN_MADE": null, "OTHER_TAGS": "\"amenity\"=>\"college\"" }, "geometry": { "type": "Point", "coordinates": [ 85.332413100000011, 27.7092423 ] } },
{ "type": "Feature", "properties": { "OGC_FID": 167, "OSM_ID": "1996663072", "NAME": "Learnhub Primary School", "BARRIER": null, "HIGHWAY": null, "REF": null, "ADDRESS": null, "IS_IN": null, "PLACE": null, "MAN_MADE": null, "OTHER_TAGS": "\"amenity\"=>\"school\"" }, "geometry": { "type": "Point", "coordinates": [ 85.3391232, 27.7195919 ] } },
{ "type": "Feature", "properties": { "OGC_FID": 168, "OSM_ID": "1997498245", "NAME": "Crystal Mountain School", "BARRIER": null, "HIGHWAY": null, "REF": null, "ADDRESS": null, "IS_IN": null, "PLACE": null, "MAN_MADE": null, "OTHER_TAGS": "\"amenity\"=>\"school\"" }, "geometry": { "type": "Point", "coordinates": [ 83.176291, 29.1454029 ] } },
{ "type": "Feature", "properties": { "OGC_FID": 169, "OSM_ID": "1999601201", "NAME": "Sainik Awasia Mahvidyalaya", "BARRIER": null, "HIGHWAY": null, "REF": null, "ADDRESS": null, "IS_IN": null, "PLACE": null, "MAN_MADE": null, "OTHER_TAGS": "\"amenity\"=>\"school\"" }, "geometry": { "type": "Point", "coordinates": [ 84.569662900000012, 27.6215711 ] } },
{ "type": "Feature", "properties": { "OGC_FID": 170, "OSM_ID": "1999696344", "NAME": "Xavier Academy", "BARRIER": null, "HIGHWAY": null, "REF": null, "ADDRESS": null, "IS_IN": null, "PLACE": null, "MAN_MADE": null, "OTHER_TAGS": "\"amenity\"=>\"college\"" }, "geometry": { "type": "Point", "coordinates": [ 85.3216785, 27.7208653 ] } },
{ "type": "Feature", "properties": { "OGC_FID": 171, "OSM_ID": "2002392566", "NAME": "NEA School", "BARRIER": null, "HIGHWAY": null, "REF": null, "ADDRESS": null, "IS_IN": null, "PLACE": null, "MAN_MADE": null, "OTHER_TAGS": "\"amenity\"=>\"school\"" }, "geometry": { "type": "Point", "coordinates": [ 85.3178505, 27.7359818 ] } },
{ "type": "Feature", "properties": { "OGC_FID": 172, "OSM_ID": "2008251755", "NAME": "Sypres Public High School", "BARRIER": null, "HIGHWAY": null, "REF": null, "ADDRESS": null, "IS_IN": null, "PLACE": null, "MAN_MADE": null, "OTHER_TAGS": "\"amenity\"=>\"school\"" }, "geometry": { "type": "Point", "coordinates": [ 85.3469429, 27.7291319 ] } },
{ "type": "Feature", "properties": { "OGC_FID": 173, "OSM_ID": "2011843155", "NAME": "Best's Montessori Elementary School", "BARRIER": null, "HIGHWAY": null, "REF": null, "ADDRESS": null, "IS_IN": null, "PLACE": null, "MAN_MADE": null, "OTHER_TAGS": "\"phone\"=>\"4005514, 4429479\", \"amenity\"=>\"school\", \"website\"=>\"www.bestmontessori.org\", \"addr:city\"=>\"Kathmandu\", \"addr:state\"=>\"Central Region\", \"addr:street\"=>\"Srijana Marga\", \"addr:country\"=>\"NP\", \"addr:postcode\"=>\"00977\", \"contact:email\"=>\"Info@bestmo" }, "geometry": { "type": "Point", "coordinates": [ 85.3235954, 27.7248097 ] } },
{ "type": "Feature", "properties": { "OGC_FID": 174, "OSM_ID": "2011847246", "NAME": "International French School - Ecole Francaise Internationale", "BARRIER": null, "HIGHWAY": null, "REF": null, "ADDRESS": null, "IS_IN": null, "PLACE": null, "MAN_MADE": null, "OTHER_TAGS": "\"phone\"=>\"+977-1-4411203\", \"amenity\"=>\"school\", \"website\"=>\"www.ecolenepal.com\", \"addr:city\"=>\"Kathmandu\", \"addr:state\"=>\"Central Region\", \"addr:street\"=>\"Khursanitaar Marga\", \"description\"=>\"aefe: agence pour l'enseignement francais a l'etranger\", \"addr" }, "geometry": { "type": "Point", "coordinates": [ 85.3246132, 27.7251251 ] } },
{ "type": "Feature", "properties": { "OGC_FID": 229, "OSM_ID": "2165424724", "NAME": "Kanti Ishwori School", "BARRIER": null, "HIGHWAY": null, "REF": null, "ADDRESS": null, "IS_IN": null, "PLACE": null, "MAN_MADE": null, "OTHER_TAGS": "\"amenity\"=>\"school\"" }, "geometry": { "type": "Point", "coordinates": [ 85.31310830000001, 27.6933442 ] } },
{ "type": "Feature", "properties": { "OGC_FID": 175, "OSM_ID": "2011861271", "NAME": "Gurkha Institute of Education and Career", "BARRIER": null, "HIGHWAY": null, "REF": null, "ADDRESS": null, "IS_IN": null, "PLACE": null, "MAN_MADE": null, "OTHER_TAGS": "\"amenity\"=>\"school\", \"addr:city\"=>\"Kathmandu\", \"addr:state\"=>\"Central Region\", \"addr:street\"=>\"Srijana Marga\", \"description\"=>\"Branch Office \", \"addr:country\"=>\"NP\", \"addr:postcode\"=>\"00977\"" }, "geometry": { "type": "Point", "coordinates": [ 85.3242587, 27.7239855 ] } },
{ "type": "Feature", "properties": { "OGC_FID": 176, "OSM_ID": "2017813911", "NAME": "Takshashila Academy", "BARRIER": null, "HIGHWAY": null, "REF": null, "ADDRESS": null, "IS_IN": null, "PLACE": null, "MAN_MADE": null, "OTHER_TAGS": "\"amenity\"=>\"school\"" }, "geometry": { "type": "Point", "coordinates": [ 85.3355715, 27.7228257 ] } },
{ "type": "Feature", "properties": { "OGC_FID": 177, "OSM_ID": "2017902791", "NAME": "Wendy House Play Group", "BARRIER": null, "HIGHWAY": null, "REF": null, "ADDRESS": null, "IS_IN": null, "PLACE": null, "MAN_MADE": null, "OTHER_TAGS": "\"amenity\"=>\"kindergarten\"" }, "geometry": { "type": "Point", "coordinates": [ 85.3320589, 27.7197105 ] } },
{ "type": "Feature", "properties": { "OGC_FID": 178, "OSM_ID": "2019325210", "NAME": "Shree Lali gurans english Seconday School", "BARRIER": null, "HIGHWAY": null, "REF": null, "ADDRESS": null, "IS_IN": null, "PLACE": null, "MAN_MADE": null, "OTHER_TAGS": "\"phone\"=>\"+977 11405027\", \"amenity\"=>\"school\", \"website\"=>\"https:\/\/www.facebook.com\/shreelaligurans\", \"addr:city\"=>\"Kavre\", \"addr:street\"=>\"Kushadevi\", \"addr:postcode\"=>\"977\", \"addr:housenumber\"=>\"3\"" }, "geometry": { "type": "Point", "coordinates": [ 85.4806676, 27.5899213 ] } },
{ "type": "Feature", "properties": { "OGC_FID": 179, "OSM_ID": "2021203137", "NAME": "Montessori Cottage Pre-School", "BARRIER": null, "HIGHWAY": null, "REF": null, "ADDRESS": null, "IS_IN": null, "PLACE": null, "MAN_MADE": null, "OTHER_TAGS": "\"amenity\"=>\"kindergarten\"" }, "geometry": { "type": "Point", "coordinates": [ 85.332176, 27.7288054 ] } },
{ "type": "Feature", "properties": { "OGC_FID": 180, "OSM_ID": "2027856790", "NAME": "Holivision Technical Campus", "BARRIER": null, "HIGHWAY": null, "REF": null, "ADDRESS": null, "IS_IN": null, "PLACE": null, "MAN_MADE": null, "OTHER_TAGS": "\"amenity\"=>\"school\", \"addr:street\"=>\"New Baneshwor\"" }, "geometry": { "type": "Point", "coordinates": [ 85.333584800000011, 27.6913849 ] } },
{ "type": "Feature", "properties": { "OGC_FID": 181, "OSM_ID": "2027857088", "NAME": "Metro High School", "BARRIER": null, "HIGHWAY": null, "REF": null, "ADDRESS": null, "IS_IN": null, "PLACE": null, "MAN_MADE": null, "OTHER_TAGS": "\"amenity\"=>\"school\", \"addr:street\"=>\"New Baneshwor\"" }, "geometry": { "type": "Point", "coordinates": [ 85.3336707, 27.6913137 ] } },
{ "type": "Feature", "properties": { "OGC_FID": 182, "OSM_ID": "2027864941", "NAME": "K&K College", "BARRIER": null, "HIGHWAY": null, "REF": null, "ADDRESS": null, "IS_IN": null, "PLACE": null, "MAN_MADE": null, "OTHER_TAGS": "\"amenity\"=>\"school\"" }, "geometry": { "type": "Point", "coordinates": [ 85.3350931, 27.6899672 ] } },
{ "type": "Feature", "properties": { "OGC_FID": 183, "OSM_ID": "2027867303", "NAME": "Dream World Children Care Academy", "BARRIER": null, "HIGHWAY": null, "REF": null, "ADDRESS": null, "IS_IN": null, "PLACE": null, "MAN_MADE": null, "OTHER_TAGS": "\"amenity\"=>\"kindergarten\"" }, "geometry": { "type": "Point", "coordinates": [ 85.3348356, 27.690067 ] } },
{ "type": "Feature", "properties": { "OGC_FID": 184, "OSM_ID": "2027880628", "NAME": "Norkhil Academy", "BARRIER": null, "HIGHWAY": null, "REF": null, "ADDRESS": null, "IS_IN": null, "PLACE": null, "MAN_MADE": null, "OTHER_TAGS": "\"amenity\"=>\"school\"" }, "geometry": { "type": "Point", "coordinates": [ 85.3293237, 27.691241 ] } },
{ "type": "Feature", "properties": { "OGC_FID": 185, "OSM_ID": "2027891170", "NAME": "Mega College", "BARRIER": null, "HIGHWAY": null, "REF": null, "ADDRESS": null, "IS_IN": null, "PLACE": null, "MAN_MADE": null, "OTHER_TAGS": "\"amenity\"=>\"school\"" }, "geometry": { "type": "Point", "coordinates": [ 85.3282606, 27.6914955 ] } },
{ "type": "Feature", "properties": { "OGC_FID": 186, "OSM_ID": "2027893827", "NAME": "Southpoint Boarding High School", "BARRIER": null, "HIGHWAY": null, "REF": null, "ADDRESS": null, "IS_IN": null, "PLACE": null, "MAN_MADE": null, "OTHER_TAGS": "\"amenity\"=>\"school\"" }, "geometry": { "type": "Point", "coordinates": [ 85.3284228, 27.6887369 ] } },
{ "type": "Feature", "properties": { "OGC_FID": 187, "OSM_ID": "2027894368", "NAME": "Presidental Business School", "BARRIER": null, "HIGHWAY": null, "REF": null, "ADDRESS": null, "IS_IN": null, "PLACE": null, "MAN_MADE": null, "OTHER_TAGS": "\"amenity\"=>\"school\"" }, "geometry": { "type": "Point", "coordinates": [ 85.3283169, 27.688883 ] } },
{ "type": "Feature", "properties": { "OGC_FID": 188, "OSM_ID": "2028415805", "NAME": "Sunny Bunny Kids Care", "BARRIER": null, "HIGHWAY": null, "REF": null, "ADDRESS": null, "IS_IN": null, "PLACE": null, "MAN_MADE": null, "OTHER_TAGS": "\"amenity\"=>\"kindergarten\"" }, "geometry": { "type": "Point", "coordinates": [ 85.3437583, 27.691666 ] } },
{ "type": "Feature", "properties": { "OGC_FID": 189, "OSM_ID": "2036074903", "NAME": "Evolution", "BARRIER": null, "HIGHWAY": null, "REF": null, "ADDRESS": null, "IS_IN": null, "PLACE": null, "MAN_MADE": null, "OTHER_TAGS": "\"amenity\"=>\"kindergarten\"" }, "geometry": { "type": "Point", "coordinates": [ 85.3028092, 27.6798142 ] } },
{ "type": "Feature", "properties": { "OGC_FID": 190, "OSM_ID": "2041480401", "NAME": "Armed Police Force School", "BARRIER": null, "HIGHWAY": null, "REF": null, "ADDRESS": null, "IS_IN": null, "PLACE": null, "MAN_MADE": null, "OTHER_TAGS": "\"amenity\"=>\"school\"" }, "geometry": { "type": "Point", "coordinates": [ 85.25625620000001, 27.6601679 ] } },
{ "type": "Feature", "properties": { "OGC_FID": 191, "OSM_ID": "2048106035", "NAME": "Golden Siddhartha Academy", "BARRIER": null, "HIGHWAY": null, "REF": null, "ADDRESS": null, "IS_IN": null, "PLACE": null, "MAN_MADE": null, "OTHER_TAGS": "\"amenity\"=>\"school\"" }, "geometry": { "type": "Point", "coordinates": [ 85.53262, 27.6143127 ] } },
{ "type": "Feature", "properties": { "OGC_FID": 192, "OSM_ID": "2055477614", "NAME": "Kantipur Engineering College", "BARRIER": null, "HIGHWAY": null, "REF": null, "ADDRESS": null, "IS_IN": null, "PLACE": null, "MAN_MADE": null, "OTHER_TAGS": "\"amenity\"=>\"college\"" }, "geometry": { "type": "Point", "coordinates": [ 85.3334312, 27.637138 ] } },
{ "type": "Feature", "properties": { "OGC_FID": 193, "OSM_ID": "2074278686", "NAME": "AJW College- A Level", "BARRIER": null, "HIGHWAY": null, "REF": null, "ADDRESS": null, "IS_IN": null, "PLACE": null, "MAN_MADE": null, "OTHER_TAGS": "\"amenity\"=>\"college\"" }, "geometry": { "type": "Point", "coordinates": [ 85.3263299, 27.7304238 ] } },
{ "type": "Feature", "properties": { "OGC_FID": 194, "OSM_ID": "2079675409", "NAME": "K.P. Bright Future Academy", "BARRIER": null, "HIGHWAY": null, "REF": null, "ADDRESS": null, "IS_IN": null, "PLACE": null, "MAN_MADE": null, "OTHER_TAGS": "\"phone\"=>\"+977012200652\", \"amenity\"=>\"school\"" }, "geometry": { "type": "Point", "coordinates": [ 85.334012300000012, 27.7412967 ] } },
{ "type": "Feature", "properties": { "OGC_FID": 195, "OSM_ID": "2079675413", "NAME": "Modern Hotel Management and Tourism Technology", "BARRIER": null, "HIGHWAY": null, "REF": null, "ADDRESS": null, "IS_IN": null, "PLACE": null, "MAN_MADE": null, "OTHER_TAGS": "\"phone\"=>\"+977014363215\", \"amenity\"=>\"college\"" }, "geometry": { "type": "Point", "coordinates": [ 85.334427, 27.7410586 ] } },
{ "type": "Feature", "properties": { "OGC_FID": 196, "OSM_ID": "2083084796", "NAME": "Blooming Buds", "BARRIER": null, "HIGHWAY": null, "REF": null, "ADDRESS": null, "IS_IN": null, "PLACE": null, "MAN_MADE": null, "OTHER_TAGS": "\"amenity\"=>\"kindergarten\"" }, "geometry": { "type": "Point", "coordinates": [ 85.3392936, 27.7237434 ] } },
{ "type": "Feature", "properties": { "OGC_FID": 197, "OSM_ID": "2087434217", "NAME": "Bachchu Child Care Centre", "BARRIER": null, "HIGHWAY": null, "REF": null, "ADDRESS": null, "IS_IN": null, "PLACE": null, "MAN_MADE": null, "OTHER_TAGS": "\"amenity\"=>\"kindergarten\"" }, "geometry": { "type": "Point", "coordinates": [ 85.335327400000011, 27.7189195 ] } },
{ "type": "Feature", "properties": { "OGC_FID": 198, "OSM_ID": "2088215385", "NAME": "Children's World", "BARRIER": null, "HIGHWAY": null, "REF": null, "ADDRESS": null, "IS_IN": null, "PLACE": null, "MAN_MADE": null, "OTHER_TAGS": "\"phone\"=>\"01-4418723\", \"amenity\"=>\"kindergarten\"" }, "geometry": { "type": "Point", "coordinates": [ 85.3349952, 27.7241937 ] } },
{ "type": "Feature", "properties": { "OGC_FID": 199, "OSM_ID": "2088215388", "NAME": "Vaatsalya Pre School", "BARRIER": null, "HIGHWAY": null, "REF": null, "ADDRESS": null, "IS_IN": null, "PLACE": null, "MAN_MADE": null, "OTHER_TAGS": "\"amenity\"=>\"kindergarten\"" }, "geometry": { "type": "Point", "coordinates": [ 85.3353158, 27.7233299 ] } },
{ "type": "Feature", "properties": { "OGC_FID": 200, "OSM_ID": "2088226801", "NAME": "Angels Kingdom Kindergarten", "BARRIER": null, "HIGHWAY": null, "REF": null, "ADDRESS": null, "IS_IN": null, "PLACE": null, "MAN_MADE": null, "OTHER_TAGS": "\"amenity\"=>\"kindergarten\"" }, "geometry": { "type": "Point", "coordinates": [ 85.323917, 27.7217088 ] } },
{ "type": "Feature", "properties": { "OGC_FID": 201, "OSM_ID": "2090620859", "NAME": "Srijana College of Fine Arts", "BARRIER": null, "HIGHWAY": null, "REF": null, "ADDRESS": null, "IS_IN": null, "PLACE": null, "MAN_MADE": null, "OTHER_TAGS": "\"amenity\"=>\"college\"" }, "geometry": { "type": "Point", "coordinates": [ 85.3213736, 27.7181109 ] } },
{ "type": "Feature", "properties": { "OGC_FID": 202, "OSM_ID": "2090735367", "NAME": "Ekata Sadan Boarding School", "BARRIER": null, "HIGHWAY": null, "REF": null, "ADDRESS": null, "IS_IN": null, "PLACE": null, "MAN_MADE": null, "OTHER_TAGS": "\"amenity\"=>\"school\"" }, "geometry": { "type": "Point", "coordinates": [ 85.3337, 27.7166083 ] } },
{ "type": "Feature", "properties": { "OGC_FID": 203, "OSM_ID": "2090779305", "NAME": "Our Small Wonders Toddlers Pre-School Montessori", "BARRIER": null, "HIGHWAY": null, "REF": null, "ADDRESS": null, "IS_IN": null, "PLACE": null, "MAN_MADE": null, "OTHER_TAGS": "\"amenity\"=>\"kindergarten\"" }, "geometry": { "type": "Point", "coordinates": [ 85.3266999, 27.7196848 ] } },
{ "type": "Feature", "properties": { "OGC_FID": 204, "OSM_ID": "2093231495", "NAME": "The Bal Mandir Kindergarten", "BARRIER": null, "HIGHWAY": null, "REF": null, "ADDRESS": null, "IS_IN": null, "PLACE": null, "MAN_MADE": null, "OTHER_TAGS": "\"amenity\"=>\"kindergarten\"" }, "geometry": { "type": "Point", "coordinates": [ 85.3314024, 27.7140495 ] } },
{ "type": "Feature", "properties": { "OGC_FID": 205, "OSM_ID": "2101286233", "NAME": "Mills Berry School", "BARRIER": null, "HIGHWAY": null, "REF": null, "ADDRESS": null, "IS_IN": null, "PLACE": null, "MAN_MADE": null, "OTHER_TAGS": "\"amenity\"=>\"school\"" }, "geometry": { "type": "Point", "coordinates": [ 85.31918490000001, 27.7208063 ] } },
{ "type": "Feature", "properties": { "OGC_FID": 206, "OSM_ID": "2102709324", "NAME": "Pure Love Nursery( A peaceful Home School)", "BARRIER": null, "HIGHWAY": null, "REF": null, "ADDRESS": null, "IS_IN": null, "PLACE": null, "MAN_MADE": null, "OTHER_TAGS": "\"amenity\"=>\"kindergarten\"" }, "geometry": { "type": "Point", "coordinates": [ 85.3344414, 27.7120366 ] } },
{ "type": "Feature", "properties": { "OGC_FID": 207, "OSM_ID": "2105398487", "NAME": "Shree PatanDevi Secondary School", "BARRIER": null, "HIGHWAY": null, "REF": null, "ADDRESS": null, "IS_IN": null, "PLACE": null, "MAN_MADE": null, "OTHER_TAGS": "\"amenity\"=>\"school\"" }, "geometry": { "type": "Point", "coordinates": [ 84.7395621, 27.9536409 ] } },
{ "type": "Feature", "properties": { "OGC_FID": 208, "OSM_ID": "2108676792", "NAME": "International School of Tourism & Hotel Management", "BARRIER": null, "HIGHWAY": null, "REF": null, "ADDRESS": null, "IS_IN": null, "PLACE": null, "MAN_MADE": null, "OTHER_TAGS": "\"amenity\"=>\"college\"" }, "geometry": { "type": "Point", "coordinates": [ 85.327851700000011, 27.7072192 ] } },
{ "type": "Feature", "properties": { "OGC_FID": 209, "OSM_ID": "2112030881", "NAME": "Kathmandu BernHardt College", "BARRIER": null, "HIGHWAY": null, "REF": null, "ADDRESS": null, "IS_IN": null, "PLACE": null, "MAN_MADE": null, "OTHER_TAGS": "\"email\"=>\"BernHardt@wlink.com.np\", \"phone\"=>\"4036106, 4036107\", \"amenity\"=>\"college\", \"website\"=>\"http:\/\/www.bernhardt.edu.np\"" }, "geometry": { "type": "Point", "coordinates": [ 85.2966047, 27.6857379 ] } },
{ "type": "Feature", "properties": { "OGC_FID": 210, "OSM_ID": "2113358524", "NAME": "Shree Bal Sikchya Higher Secondary School", "BARRIER": null, "HIGHWAY": null, "REF": null, "ADDRESS": null, "IS_IN": null, "PLACE": null, "MAN_MADE": null, "OTHER_TAGS": "\"amenity\"=>\"school\"" }, "geometry": { "type": "Point", "coordinates": [ 85.829387700000012, 27.755548 ] } },
{ "type": "Feature", "properties": { "OGC_FID": 211, "OSM_ID": "2113579306", "NAME": "School of Creative Communications", "BARRIER": null, "HIGHWAY": null, "REF": null, "ADDRESS": null, "IS_IN": null, "PLACE": null, "MAN_MADE": null, "OTHER_TAGS": "\"amenity\"=>\"school\"" }, "geometry": { "type": "Point", "coordinates": [ 85.3184396, 27.686191 ] } },
{ "type": "Feature", "properties": { "OGC_FID": 212, "OSM_ID": "2122390088", "NAME": "BERNHARDT COLLEGE", "BARRIER": null, "HIGHWAY": null, "REF": null, "ADDRESS": null, "IS_IN": null, "PLACE": null, "MAN_MADE": null, "OTHER_TAGS": "\"amenity\"=>\"school\", \"int_name\"=>\"BERNHARDT INTERNATIONAL EDUCATION NETWORK\", \"designation\"=>\"GRADUATES COLLEGE\"" }, "geometry": { "type": "Point", "coordinates": [ 85.2831206, 27.7020617 ] } },
{ "type": "Feature", "properties": { "OGC_FID": 213, "OSM_ID": "2123804182", "NAME": "Jana Vikash Secondary School", "BARRIER": null, "HIGHWAY": null, "REF": null, "ADDRESS": null, "IS_IN": null, "PLACE": null, "MAN_MADE": null, "OTHER_TAGS": "\"amenity\"=>\"school\"" }, "geometry": { "type": "Point", "coordinates": [ 85.3385837, 27.612188 ] } },
{ "type": "Feature", "properties": { "OGC_FID": 214, "OSM_ID": "2127144862", "NAME": "Manmohan Memorial College", "BARRIER": null, "HIGHWAY": null, "REF": null, "ADDRESS": null, "IS_IN": null, "PLACE": null, "MAN_MADE": null, "OTHER_TAGS": "\"amenity\"=>\"college\"" }, "geometry": { "type": "Point", "coordinates": [ 85.3092615, 27.7186221 ] } },
{ "type": "Feature", "properties": { "OGC_FID": 215, "OSM_ID": "2127144885", "NAME": "Sandra Namuna School", "BARRIER": null, "HIGHWAY": null, "REF": null, "ADDRESS": null, "IS_IN": null, "PLACE": null, "MAN_MADE": null, "OTHER_TAGS": "\"amenity\"=>\"school\"" }, "geometry": { "type": "Point", "coordinates": [ 85.3095534, 27.7194598 ] } },
{ "type": "Feature", "properties": { "OGC_FID": 216, "OSM_ID": "2127154506", "NAME": "Manmohan Memorial College", "BARRIER": null, "HIGHWAY": null, "REF": null, "ADDRESS": null, "IS_IN": null, "PLACE": null, "MAN_MADE": null, "OTHER_TAGS": "\"amenity\"=>\"college\", \"contact:phone\"=>\"01-4360271\"" }, "geometry": { "type": "Point", "coordinates": [ 85.3091293, 27.7185317 ] } },
{ "type": "Feature", "properties": { "OGC_FID": 217, "OSM_ID": "2127188291", "NAME": "People Campus (Block A)", "BARRIER": null, "HIGHWAY": null, "REF": null, "ADDRESS": null, "IS_IN": null, "PLACE": null, "MAN_MADE": null, "OTHER_TAGS": "\"amenity\"=>\"college\"" }, "geometry": { "type": "Point", "coordinates": [ 85.308346300000011, 27.7145238 ] } },
{ "type": "Feature", "properties": { "OGC_FID": 218, "OSM_ID": "2127188292", "NAME": "People Campus (Block B)", "BARRIER": null, "HIGHWAY": null, "REF": null, "ADDRESS": null, "IS_IN": null, "PLACE": null, "MAN_MADE": null, "OTHER_TAGS": "\"amenity\"=>\"college\"" }, "geometry": { "type": "Point", "coordinates": [ 85.3085441, 27.7144347 ] } },
{ "type": "Feature", "properties": { "OGC_FID": 219, "OSM_ID": "2127195667", "NAME": "West Wood International Pre-school", "BARRIER": null, "HIGHWAY": null, "REF": null, "ADDRESS": null, "IS_IN": null, "PLACE": null, "MAN_MADE": null, "OTHER_TAGS": "\"amenity\"=>\"school\"" }, "geometry": { "type": "Point", "coordinates": [ 85.3134273, 27.7226708 ] } },
{ "type": "Feature", "properties": { "OGC_FID": 220, "OSM_ID": "2128609422", "NAME": "waterbrdige test", "BARRIER": null, "HIGHWAY": null, "REF": null, "ADDRESS": null, "IS_IN": null, "PLACE": null, "MAN_MADE": null, "OTHER_TAGS": "\"amenity\"=>\"school\"" }, "geometry": { "type": "Point", "coordinates": [ 85.31849960000001, 27.6844863 ] } },
{ "type": "Feature", "properties": { "OGC_FID": 221, "OSM_ID": "2128621042", "NAME": "Hobby Art Class", "BARRIER": null, "HIGHWAY": null, "REF": null, "ADDRESS": null, "IS_IN": null, "PLACE": null, "MAN_MADE": null, "OTHER_TAGS": "\"amenity\"=>\"school\"" }, "geometry": { "type": "Point", "coordinates": [ 85.3163406, 27.6817925 ] } },
{ "type": "Feature", "properties": { "OGC_FID": 222, "OSM_ID": "2139797772", "NAME": "Sakar Academy", "BARRIER": null, "HIGHWAY": null, "REF": null, "ADDRESS": null, "IS_IN": null, "PLACE": null, "MAN_MADE": null, "OTHER_TAGS": "\"amenity\"=>\"school\"" }, "geometry": { "type": "Point", "coordinates": [ 83.9713961, 28.2008131 ] } },
{ "type": "Feature", "properties": { "OGC_FID": 223, "OSM_ID": "2151429701", "NAME": "Nepal Engineering College", "BARRIER": null, "HIGHWAY": null, "REF": null, "ADDRESS": null, "IS_IN": null, "PLACE": null, "MAN_MADE": null, "OTHER_TAGS": "\"amenity\"=>\"college\"" }, "geometry": { "type": "Point", "coordinates": [ 85.415530100000012, 27.7095522 ] } },
{ "type": "Feature", "properties": { "OGC_FID": 224, "OSM_ID": "2153223713", "NAME": "Malpi international collage", "BARRIER": null, "HIGHWAY": null, "REF": null, "ADDRESS": null, "IS_IN": null, "PLACE": null, "MAN_MADE": null, "OTHER_TAGS": "\"amenity\"=>\"school\"" }, "geometry": { "type": "Point", "coordinates": [ 85.515022, 27.5892791 ] } },
{ "type": "Feature", "properties": { "OGC_FID": 225, "OSM_ID": "2153245237", "NAME": "panauti english secondary boarding school", "BARRIER": null, "HIGHWAY": null, "REF": null, "ADDRESS": null, "IS_IN": null, "PLACE": null, "MAN_MADE": null, "OTHER_TAGS": "\"amenity\"=>\"school\"" }, "geometry": { "type": "Point", "coordinates": [ 85.516301500000012, 27.5939714 ] } },
{ "type": "Feature", "properties": { "OGC_FID": 226, "OSM_ID": "2153316587", "NAME": "Siddhartha Vanasthali Institute", "BARRIER": null, "HIGHWAY": null, "REF": null, "ADDRESS": null, "IS_IN": null, "PLACE": null, "MAN_MADE": null, "OTHER_TAGS": "\"amenity\"=>\"school\"" }, "geometry": { "type": "Point", "coordinates": [ 85.4957353, 27.586193 ] } },
{ "type": "Feature", "properties": { "OGC_FID": 227, "OSM_ID": "2155545217", "NAME": "Sai Jyoti", "BARRIER": null, "HIGHWAY": null, "REF": null, "ADDRESS": null, "IS_IN": null, "PLACE": null, "MAN_MADE": null, "OTHER_TAGS": "\"amenity\"=>\"kindergarten\"" }, "geometry": { "type": "Point", "coordinates": [ 88.0716606, 26.8933731 ] } },
{ "type": "Feature", "properties": { "OGC_FID": 228, "OSM_ID": "2164964251", "NAME": "Asian College", "BARRIER": null, "HIGHWAY": null, "REF": null, "ADDRESS": null, "IS_IN": null, "PLACE": null, "MAN_MADE": null, "OTHER_TAGS": "\"amenity\"=>\"college\"" }, "geometry": { "type": "Point", "coordinates": [ 85.3099818, 27.6704588 ] } },
{ "type": "Feature", "properties": { "OGC_FID": 230, "OSM_ID": "2174521360", "NAME": "Kids Wonderland", "BARRIER": null, "HIGHWAY": null, "REF": null, "ADDRESS": null, "IS_IN": null, "PLACE": null, "MAN_MADE": null, "OTHER_TAGS": "\"amenity\"=>\"kindergarten\"" }, "geometry": { "type": "Point", "coordinates": [ 85.3376976, 27.6945435 ] } },
{ "type": "Feature", "properties": { "OGC_FID": 231, "OSM_ID": "2176765801", "NAME": "Management college", "BARRIER": null, "HIGHWAY": null, "REF": null, "ADDRESS": null, "IS_IN": null, "PLACE": null, "MAN_MADE": null, "OTHER_TAGS": "\"amenity\"=>\"school\"" }, "geometry": { "type": "Point", "coordinates": [ 85.2924954, 27.6934156 ] } },
{ "type": "Feature", "properties": { "OGC_FID": 232, "OSM_ID": "2183337268", "NAME": "Bal Bikas Kendra", "BARRIER": null, "HIGHWAY": null, "REF": null, "ADDRESS": null, "IS_IN": null, "PLACE": null, "MAN_MADE": null, "OTHER_TAGS": "\"amenity\"=>\"kindergarten\"" }, "geometry": { "type": "Point", "coordinates": [ 85.3862277, 27.6772052 ] } },
{ "type": "Feature", "properties": { "OGC_FID": 233, "OSM_ID": "2184993849", "NAME": "Best Montessori E. School", "BARRIER": null, "HIGHWAY": null, "REF": null, "ADDRESS": null, "IS_IN": null, "PLACE": null, "MAN_MADE": null, "OTHER_TAGS": "\"phone\"=>\"01-4430806\", \"amenity\"=>\"kindergarten\"" }, "geometry": { "type": "Point", "coordinates": [ 85.3440975, 27.7226662 ] } },
{ "type": "Feature", "properties": { "OGC_FID": 234, "OSM_ID": "2184993862", "NAME": "U2 International College", "BARRIER": null, "HIGHWAY": null, "REF": null, "ADDRESS": null, "IS_IN": null, "PLACE": null, "MAN_MADE": null, "OTHER_TAGS": "\"amenity\"=>\"college\"" }, "geometry": { "type": "Point", "coordinates": [ 85.344431, 27.7223934 ] } },
{ "type": "Feature", "properties": { "OGC_FID": 235, "OSM_ID": "2185607000", "NAME": "CITE", "BARRIER": null, "HIGHWAY": null, "REF": null, "ADDRESS": null, "IS_IN": null, "PLACE": null, "MAN_MADE": null, "OTHER_TAGS": "\"amenity\"=>\"school\"" }, "geometry": { "type": "Point", "coordinates": [ 85.345610900000011, 27.6843781 ] } },
{ "type": "Feature", "properties": { "OGC_FID": 236, "OSM_ID": "2185607008", "NAME": "Kids Garden Montessori School", "BARRIER": null, "HIGHWAY": null, "REF": null, "ADDRESS": null, "IS_IN": null, "PLACE": null, "MAN_MADE": null, "OTHER_TAGS": "\"amenity\"=>\"school\"" }, "geometry": { "type": "Point", "coordinates": [ 85.3481103, 27.6819924 ] } },
{ "type": "Feature", "properties": { "OGC_FID": 237, "OSM_ID": "2185607011", "NAME": "NavaJyoti School and College", "BARRIER": null, "HIGHWAY": null, "REF": null, "ADDRESS": null, "IS_IN": null, "PLACE": null, "MAN_MADE": null, "OTHER_TAGS": "\"amenity\"=>\"school\"" }, "geometry": { "type": "Point", "coordinates": [ 85.3482925, 27.6823907 ] } },
{ "type": "Feature", "properties": { "OGC_FID": 238, "OSM_ID": "2187991861", "NAME": "Addison Academy", "BARRIER": null, "HIGHWAY": null, "REF": null, "ADDRESS": null, "IS_IN": null, "PLACE": null, "MAN_MADE": null, "OTHER_TAGS": "\"amenity\"=>\"kindergarten\"" }, "geometry": { "type": "Point", "coordinates": [ 85.3374521, 27.736776 ] } },
{ "type": "Feature", "properties": { "OGC_FID": 239, "OSM_ID": "2187991864", "NAME": "IEC College of Art & Fashion, Chandol", "BARRIER": null, "HIGHWAY": null, "REF": null, "ADDRESS": null, "IS_IN": null, "PLACE": null, "MAN_MADE": null, "OTHER_TAGS": "\"amenity\"=>\"college\"" }, "geometry": { "type": "Point", "coordinates": [ 85.33841670000001, 27.7276252 ] } },
{ "type": "Feature", "properties": { "OGC_FID": 240, "OSM_ID": "2199145190", "NAME": "Ankur PreSchool", "BARRIER": null, "HIGHWAY": null, "REF": null, "ADDRESS": null, "IS_IN": null, "PLACE": null, "MAN_MADE": null, "OTHER_TAGS": "\"amenity\"=>\"kindergarten\"" }, "geometry": { "type": "Point", "coordinates": [ 85.3163165, 27.7361543 ] } },
{ "type": "Feature", "properties": { "OGC_FID": 241, "OSM_ID": "2199145191", "NAME": "Lasana PreSchool", "BARRIER": null, "HIGHWAY": null, "REF": null, "ADDRESS": null, "IS_IN": null, "PLACE": null, "MAN_MADE": null, "OTHER_TAGS": "\"amenity\"=>\"kindergarten\"" }, "geometry": { "type": "Point", "coordinates": [ 85.314375500000011, 27.7354321 ] } },
{ "type": "Feature", "properties": { "OGC_FID": 242, "OSM_ID": "2199145192", "NAME": "Little North Montessori School", "BARRIER": null, "HIGHWAY": null, "REF": null, "ADDRESS": null, "IS_IN": null, "PLACE": null, "MAN_MADE": null, "OTHER_TAGS": "\"amenity\"=>\"kindergarten\"" }, "geometry": { "type": "Point", "coordinates": [ 85.3142913, 27.735716 ] } },
{ "type": "Feature", "properties": { "OGC_FID": 243, "OSM_ID": "2199145193", "NAME": "NEA College", "BARRIER": null, "HIGHWAY": null, "REF": null, "ADDRESS": null, "IS_IN": null, "PLACE": null, "MAN_MADE": null, "OTHER_TAGS": "\"amenity\"=>\"college\"" }, "geometry": { "type": "Point", "coordinates": [ 85.317938500000011, 27.7359895 ] } },
{ "type": "Feature", "properties": { "OGC_FID": 244, "OSM_ID": "2201361583", "NAME": "Children's Paradise Boarding School", "BARRIER": null, "HIGHWAY": null, "REF": null, "ADDRESS": null, "IS_IN": null, "PLACE": null, "MAN_MADE": null, "OTHER_TAGS": "\"amenity\"=>\"school\"" }, "geometry": { "type": "Point", "coordinates": [ 81.627924, 28.5896705 ] } },
{ "type": "Feature", "properties": { "OGC_FID": 245, "OSM_ID": "2201369976", "NAME": "Pipira School", "BARRIER": null, "HIGHWAY": null, "REF": null, "ADDRESS": null, "IS_IN": null, "PLACE": null, "MAN_MADE": null, "OTHER_TAGS": "\"amenity\"=>\"school\"" }, "geometry": { "type": "Point", "coordinates": [ 81.6415279, 28.5696735 ] } },
{ "type": "Feature", "properties": { "OGC_FID": 246, "OSM_ID": "2201492040", "NAME": "Latikoili Secondary School", "BARRIER": null, "HIGHWAY": null, "REF": null, "ADDRESS": null, "IS_IN": null, "PLACE": null, "MAN_MADE": null, "OTHER_TAGS": "\"amenity\"=>\"school\"" }, "geometry": { "type": "Point", "coordinates": [ 81.6053731, 28.5762686 ] } },
{ "type": "Feature", "properties": { "OGC_FID": 247, "OSM_ID": "2201510126", "NAME": "SOS School", "BARRIER": null, "HIGHWAY": null, "REF": null, "ADDRESS": null, "IS_IN": null, "PLACE": null, "MAN_MADE": null, "OTHER_TAGS": "\"amenity\"=>\"school\"" }, "geometry": { "type": "Point", "coordinates": [ 81.6022309, 28.6063471 ] } },
{ "type": "Feature", "properties": { "OGC_FID": 248, "OSM_ID": "2209544399", "NAME": "Hilaros Montessori Pre-School", "BARRIER": null, "HIGHWAY": null, "REF": null, "ADDRESS": null, "IS_IN": null, "PLACE": null, "MAN_MADE": null, "OTHER_TAGS": "\"amenity\"=>\"kindergarten\"" }, "geometry": { "type": "Point", "coordinates": [ 85.31812690000001, 27.6771472 ] } },
{ "type": "Feature", "properties": { "OGC_FID": 249, "OSM_ID": "2211121439", "NAME": "Moulding Minds Montessory", "BARRIER": null, "HIGHWAY": null, "REF": null, "ADDRESS": null, "IS_IN": null, "PLACE": null, "MAN_MADE": null, "OTHER_TAGS": "\"amenity\"=>\"kindergarten\", \"addr:street\"=>\"Jupiter Tole\", \"designation\"=>\"School\"" }, "geometry": { "type": "Point", "coordinates": [ 85.3189231, 27.655785 ] } },
{ "type": "Feature", "properties": { "OGC_FID": 250, "OSM_ID": "2214210341", "NAME": "Shree Krishna Higher Secondary School (    )", "BARRIER": null, "HIGHWAY": null, "REF": null, "ADDRESS": null, "IS_IN": null, "PLACE": null, "MAN_MADE": null, "OTHER_TAGS": "\"amenity\"=>\"school\"" }, "geometry": { "type": "Point", "coordinates": [ 81.626083900000012, 28.5981392 ] } },
{ "type": "Feature", "properties": { "OGC_FID": 251, "OSM_ID": "2214210351", "NAME": "Itram School ( )", "BARRIER": null, "HIGHWAY": null, "REF": null, "ADDRESS": null, "IS_IN": null, "PLACE": null, "MAN_MADE": null, "OTHER_TAGS": "\"amenity\"=>\"school\"" }, "geometry": { "type": "Point", "coordinates": [ 81.6256333, 28.5992884 ] } },
{ "type": "Feature", "properties": { "OGC_FID": 252, "OSM_ID": "2218324862", "NAME": "New Shine Academy High School", "BARRIER": null, "HIGHWAY": null, "REF": null, "ADDRESS": null, "IS_IN": null, "PLACE": null, "MAN_MADE": null, "OTHER_TAGS": "\"amenity\"=>\"school\"" }, "geometry": { "type": "Point", "coordinates": [ 85.33217470000001, 27.6953948 ] } },
{ "type": "Feature", "properties": { "OGC_FID": 253, "OSM_ID": "2218324869", "NAME": "Swapna Batika Montessori School", "BARRIER": null, "HIGHWAY": null, "REF": null, "ADDRESS": null, "IS_IN": null, "PLACE": null, "MAN_MADE": null, "OTHER_TAGS": "\"amenity\"=>\"kindergarten\"" }, "geometry": { "type": "Point", "coordinates": [ 85.3461211, 27.6960927 ] } },
{ "type": "Feature", "properties": { "OGC_FID": 254, "OSM_ID": "2218658277", "NAME": "Florence", "BARRIER": null, "HIGHWAY": null, "REF": null, "ADDRESS": null, "IS_IN": null, "PLACE": null, "MAN_MADE": null, "OTHER_TAGS": "\"amenity\"=>\"kindergarten\"" }, "geometry": { "type": "Point", "coordinates": [ 85.2872736, 27.7066446 ] } },
{ "type": "Feature", "properties": { "OGC_FID": 255, "OSM_ID": "2236904565", "NAME": "ABC Multifilms and Dance School", "BARRIER": null, "HIGHWAY": null, "REF": null, "ADDRESS": null, "IS_IN": null, "PLACE": null, "MAN_MADE": null, "OTHER_TAGS": "\"amenity\"=>\"school\"" }, "geometry": { "type": "Point", "coordinates": [ 85.344491, 27.6954297 ] } },
{ "type": "Feature", "properties": { "OGC_FID": 256, "OSM_ID": "2236944127", "NAME": "Steiner Montesswori", "BARRIER": null, "HIGHWAY": null, "REF": null, "ADDRESS": null, "IS_IN": null, "PLACE": null, "MAN_MADE": null, "OTHER_TAGS": "\"phone\"=>\"01 4483080\", \"amenity\"=>\"kindergarten\"" }, "geometry": { "type": "Point", "coordinates": [ 85.3384741, 27.6938952 ] } },
{ "type": "Feature", "properties": { "OGC_FID": 257, "OSM_ID": "2236944132", "NAME": "Stiener Academy", "BARRIER": null, "HIGHWAY": null, "REF": null, "ADDRESS": null, "IS_IN": null, "PLACE": null, "MAN_MADE": null, "OTHER_TAGS": "\"amenity\"=>\"school\"" }, "geometry": { "type": "Point", "coordinates": [ 85.3387237, 27.6938686 ] } },
{ "type": "Feature", "properties": { "OGC_FID": 258, "OSM_ID": "2249051082", "NAME": "Padmakanya Vidyashram H.S. School and College", "BARRIER": null, "HIGHWAY": null, "REF": null, "ADDRESS": null, "IS_IN": null, "PLACE": null, "MAN_MADE": null, "OTHER_TAGS": "\"amenity\"=>\"school\", \"designation\"=>\"Girls School\"" }, "geometry": { "type": "Point", "coordinates": [ 85.3259582, 27.705349 ] } },
{ "type": "Feature", "properties": { "OGC_FID": 259, "OSM_ID": "2254465139", "NAME": "Chameli Devi Ma Vi", "BARRIER": null, "HIGHWAY": null, "REF": null, "ADDRESS": null, "IS_IN": null, "PLACE": null, "MAN_MADE": null, "OTHER_TAGS": "\"amenity\"=>\"school\"" }, "geometry": { "type": "Point", "coordinates": [ 84.4144269, 27.6858728 ] } },
{ "type": "Feature", "properties": { "OGC_FID": 260, "OSM_ID": "2254465148", "NAME": "Little Flower School", "BARRIER": null, "HIGHWAY": null, "REF": null, "ADDRESS": null, "IS_IN": null, "PLACE": null, "MAN_MADE": null, "OTHER_TAGS": "\"amenity\"=>\"school\"" }, "geometry": { "type": "Point", "coordinates": [ 84.41302180000001, 27.6862315 ] } },
{ "type": "Feature", "properties": { "OGC_FID": 261, "OSM_ID": "2273402135", "NAME": "River Valley English Secondary school", "BARRIER": null, "HIGHWAY": null, "REF": null, "ADDRESS": null, "IS_IN": null, "PLACE": null, "MAN_MADE": null, "OTHER_TAGS": "\"amenity\"=>\"school\"" }, "geometry": { "type": "Point", "coordinates": [ 83.5725149, 27.8259033 ] } },
{ "type": "Feature", "properties": { "OGC_FID": 262, "OSM_ID": "2273402159", "NAME": "Shree Damkada Higher Secondary School", "BARRIER": null, "HIGHWAY": null, "REF": null, "ADDRESS": null, "IS_IN": null, "PLACE": null, "MAN_MADE": null, "OTHER_TAGS": "\"amenity\"=>\"school\"" }, "geometry": { "type": "Point", "coordinates": [ 83.5680946, 27.8240151 ] } },
{ "type": "Feature", "properties": { "OGC_FID": 263, "OSM_ID": "2273428575", "NAME": "Damkada Campus", "BARRIER": null, "HIGHWAY": null, "REF": null, "ADDRESS": null, "IS_IN": null, "PLACE": null, "MAN_MADE": null, "OTHER_TAGS": "\"amenity\"=>\"college\"" }, "geometry": { "type": "Point", "coordinates": [ 83.5665312, 27.8249292 ] } },
{ "type": "Feature", "properties": { "OGC_FID": 264, "OSM_ID": "2282809120", "NAME": "shankhadevi higher s.school", "BARRIER": null, "HIGHWAY": null, "REF": null, "ADDRESS": null, "IS_IN": null, "PLACE": null, "MAN_MADE": null, "OTHER_TAGS": "\"amenity\"=>\"school\"" }, "geometry": { "type": "Point", "coordinates": [ 85.3661826, 27.6299777 ] } },
{ "type": "Feature", "properties": { "OGC_FID": 265, "OSM_ID": "2286675864", "NAME": "Alta-Vista, A school of Spanish Language", "BARRIER": null, "HIGHWAY": null, "REF": null, "ADDRESS": null, "IS_IN": null, "PLACE": null, "MAN_MADE": null, "OTHER_TAGS": "\"amenity\"=>\"school\", \"int_name\"=>\"Alta Vista Nepal\", \"addr:street\"=>\"Putalisadak Chowk\", \"designation\"=>\"Language School\", \"addr:postcode\"=>\"GPO 8975 EPC 5067\", \"addr:housename\"=>\"Alta Vista Building\", \"addr:housenumber\"=>\"1306\"" }, "geometry": { "type": "Point", "coordinates": [ 85.3229725, 27.7057461 ] } },
{ "type": "Feature", "properties": { "OGC_FID": 266, "OSM_ID": "2287639330", "NAME": "Vidyadayini School", "BARRIER": null, "HIGHWAY": null, "REF": null, "ADDRESS": null, "IS_IN": null, "PLACE": null, "MAN_MADE": null, "OTHER_TAGS": "\"amenity\"=>\"school\"" }, "geometry": { "type": "Point", "coordinates": [ 85.3765911, 27.673463 ] } },
{ "type": "Feature", "properties": { "OGC_FID": 267, "OSM_ID": "2287642711", "NAME": "Gothbhanjyang Higher Secondary School", "BARRIER": null, "HIGHWAY": null, "REF": null, "ADDRESS": null, "IS_IN": null, "PLACE": null, "MAN_MADE": null, "OTHER_TAGS": "\"amenity\"=>\"school\", \"addr:street\"=>\"Dalchoki, Lalitpur\"" }, "geometry": { "type": "Point", "coordinates": [ 85.3243309, 27.5305804 ] } },
{ "type": "Feature", "properties": { "OGC_FID": 268, "OSM_ID": "2290196424", "NAME": "Bagaheni School", "BARRIER": null, "HIGHWAY": null, "REF": null, "ADDRESS": null, "IS_IN": null, "PLACE": null, "MAN_MADE": null, "OTHER_TAGS": "\"amenity\"=>\"school\"" }, "geometry": { "type": "Point", "coordinates": [ 85.479618800000011, 27.7050931 ] } },
{ "type": "Feature", "properties": { "OGC_FID": 269, "OSM_ID": "2291204216", "NAME": "Shree Biretanti Secondary School", "BARRIER": null, "HIGHWAY": null, "REF": null, "ADDRESS": null, "IS_IN": null, "PLACE": null, "MAN_MADE": null, "OTHER_TAGS": "\"amenity\"=>\"school\"" }, "geometry": { "type": "Point", "coordinates": [ 83.7761071, 28.3113551 ] } },
{ "type": "Feature", "properties": { "OGC_FID": 270, "OSM_ID": "2293445120", "NAME": "Samaj School of Dentistry", "BARRIER": null, "HIGHWAY": null, "REF": null, "ADDRESS": null, "IS_IN": null, "PLACE": null, "MAN_MADE": null, "OTHER_TAGS": "\"amenity\"=>\"college\", \"isced:level\"=>\"college\", \"operator:type\"=>\"private\", \"student:count\"=>\"100\", \"building_count\"=>\"1\", \"personnel:count\"=>\"35\"" }, "geometry": { "type": "Point", "coordinates": [ 85.3576673, 27.7257973 ] } },
{ "type": "Feature", "properties": { "OGC_FID": 271, "OSM_ID": "2293467705", "NAME": "Shree Narayani Gandaki H.S.S", "BARRIER": null, "HIGHWAY": null, "REF": null, "ADDRESS": null, "IS_IN": null, "PLACE": null, "MAN_MADE": null, "OTHER_TAGS": "\"amenity\"=>\"school\"" }, "geometry": { "type": "Point", "coordinates": [ 83.889456200000012, 27.4459155 ] } },
{ "type": "Feature", "properties": { "OGC_FID": 272, "OSM_ID": "2293467706", "NAME": "Shree Nepal Lower Secondary School", "BARRIER": null, "HIGHWAY": null, "REF": null, "ADDRESS": null, "IS_IN": null, "PLACE": null, "MAN_MADE": null, "OTHER_TAGS": "\"amenity\"=>\"school\"" }, "geometry": { "type": "Point", "coordinates": [ 83.8884379, 27.4701924 ] } },
{ "type": "Feature", "properties": { "OGC_FID": 273, "OSM_ID": "2293467708", "NAME": "Ujjwal Sishu Boarding School", "BARRIER": null, "HIGHWAY": null, "REF": null, "ADDRESS": null, "IS_IN": null, "PLACE": null, "MAN_MADE": null, "OTHER_TAGS": "\"amenity\"=>\"school\"" }, "geometry": { "type": "Point", "coordinates": [ 83.9004664, 27.4535494 ] } },
{ "type": "Feature", "properties": { "OGC_FID": 274, "OSM_ID": "2293467716", "NAME": null, "BARRIER": null, "HIGHWAY": null, "REF": null, "ADDRESS": null, "IS_IN": null, "PLACE": null, "MAN_MADE": null, "OTHER_TAGS": "\"amenity\"=>\"school\"" }, "geometry": { "type": "Point", "coordinates": [ 83.923659300000011, 27.4526058 ] } },
{ "type": "Feature", "properties": { "OGC_FID": 275, "OSM_ID": "2300443767", "NAME": "Manang CPS", "BARRIER": null, "HIGHWAY": null, "REF": null, "ADDRESS": null, "IS_IN": null, "PLACE": null, "MAN_MADE": null, "OTHER_TAGS": "\"amenity\"=>\"school\"" }, "geometry": { "type": "Point", "coordinates": [ 85.3604664, 27.6894439 ] } },
{ "type": "Feature", "properties": { "OGC_FID": 276, "OSM_ID": "2306727900", "NAME": "Bhassara Secondary School", "BARRIER": null, "HIGHWAY": null, "REF": null, "ADDRESS": null, "IS_IN": null, "PLACE": null, "MAN_MADE": null, "OTHER_TAGS": "\"amenity\"=>\"school\"" }, "geometry": { "type": "Point", "coordinates": [ 85.3205348, 27.6729105 ] } },
{ "type": "Feature", "properties": { "OGC_FID": 277, "OSM_ID": "2314312104", "NAME": "Annapurna Ma.V", "BARRIER": null, "HIGHWAY": null, "REF": null, "ADDRESS": null, "IS_IN": null, "PLACE": null, "MAN_MADE": null, "OTHER_TAGS": "\"amenity\"=>\"school\"" }, "geometry": { "type": "Point", "coordinates": [ 85.3037355, 27.6743548 ] } },
{ "type": "Feature", "properties": { "OGC_FID": 278, "OSM_ID": "2314312107", "NAME": "Pancha Kumari Pra V", "BARRIER": null, "HIGHWAY": null, "REF": null, "ADDRESS": null, "IS_IN": null, "PLACE": null, "MAN_MADE": null, "OTHER_TAGS": "\"amenity\"=>\"school\"" }, "geometry": { "type": "Point", "coordinates": [ 85.2967186, 27.674123 ] } },
{ "type": "Feature", "properties": { "OGC_FID": 279, "OSM_ID": "2316603873", "NAME": "Cambridge College", "BARRIER": null, "HIGHWAY": null, "REF": null, "ADDRESS": null, "IS_IN": null, "PLACE": null, "MAN_MADE": null, "OTHER_TAGS": "\"amenity\"=>\"college\", \"isced:level\"=>\"college\", \"operator:type\"=>\"private\", \"student:count\"=>\"100\", \"building_count\"=>\"2\", \"personnel:count\"=>\"22\"" }, "geometry": { "type": "Point", "coordinates": [ 85.2983923, 27.6871127 ] } },